     3.04           OBSERVATION DATA    M                   RINEX VERSION / TYPE
sbf2rin-15.4.0                          20220620 175930 UTC PGM / RUN BY / DATE 
SEPT                                                        MARKER NAME         
Unknown                                                     MARKER NUMBER       
Unknown             Unknown                                 OBSERVER / AGENCY   
3240681             SEPT ASTERX-I3      1.3.1               REC # / TYPE / VERS 
                    Unknown                                 ANT # / TYPE        
   197114.1885 -4755062.9128  4232295.3693                  APPROX POSITION XYZ 
        0.0000        0.0000        0.0000                  ANTENNA: DELTA H/E/N
G    6 C1C L1C C2W L2W C2L L2L                              SYS / # / OBS TYPES 
E    6 C1C L1C C5Q L5Q C7Q L7Q                              SYS / # / OBS TYPES 
R    4 C1C L1C C2C L2C                                      SYS / # / OBS TYPES 
C    4 C2I L2I C7I L7I                                      SYS / # / OBS TYPES 
SEPTENTRIO RECEIVERS OUTPUT ALIGNED CARRIER PHASES.         COMMENT             
NO FURTHER PHASE SHIFT APPLIED IN THE RINEX ENCODER.        COMMENT             
G L1C                                                       SYS / PHASE SHIFT   
G L2W                                                       SYS / PHASE SHIFT   
G L2L  0.00000                                              SYS / PHASE SHIFT   
E L1C  0.00000                                              SYS / PHASE SHIFT   
E L5Q  0.00000                                              SYS / PHASE SHIFT   
E L7Q  0.00000                                              SYS / PHASE SHIFT   
R L1C                                                       SYS / PHASE SHIFT   
R L2C                                                       SYS / PHASE SHIFT   
C L2I                                                       SYS / PHASE SHIFT   
C L7I                                                       SYS / PHASE SHIFT   
     1.000                                                  INTERVAL            
  2022     6    16    19    44    0.0000000     GPS         TIME OF FIRST OBS   
  2022     6    16    20     2    1.0000000     GPS         TIME OF LAST OBS    
    33                                                      # OF SATELLITES     
 C1C    0.000 C2C    0.000                                  GLONASS COD/PHS/BIS 
    18                                                      LEAP SECONDS        
  7 R03  5 R04  6 R05  1 R10 -7 R11  0 R19  3 R20  2        GLONASS SLOT / FRQ #
                                                            END OF HEADER       
> 2022 06 16 19 44  0.0000000  0 31
C11  22996642.792 7 119749591.04107  22996643.125 6  92597977.24506
C14  22033781.034 7 114735679.17707  22033780.124 6  88720895.05306
C21  25489625.202 7 132731169.87707
C28  23107877.187 7 120328780.14607
C33  23541739.242 7 122588023.36107
C34  24861862.726 6 129462240.27406
C37  26403122.636 4
E02  25835105.568 7 135764368.70307                                  25835107.212 5 104027272.39605
E04  25622968.628 6 134649607.11306  25622967.644 4                  25622971.310 5 103173092.84805
E09  27417130.664 6 144077984.70606                                  27417138.130 5
E11  22569373.376 7 118602856.66707                                  22569371.618 6  90877506.97906
E12  26319101.934 6 138307808.10306                                  26319103.807 5
E19  28436521.234 6 149434923.09006                                  28436523.872 4
E24  28656791.310 3
E25  25916109.245 6 136190100.63106  25916109.362 4                  25916113.868 6 104353444.31506
E36  25297408.566 7 132938755.52007  25297407.953 4                  25297412.026 5 101862200.28405
G02  21447045.431 7 112704993.17907  21447043.648 5  87822055.84905
G05  20745434.565 7 109017990.74507  20745434.123 6  84949080.22706  20745434.718 6  84949098.21606
G06  23522926.183 6 123613804.60906  23522929.972 4  96322465.32204  23522931.224 5  96322473.30305
G09  24805039.745 5 130351372.68605  24805044.034 3 101572517.89203  24805042.845 5 101572516.89705
G11  20920089.925 7 109935826.12407  20920090.495 5  85664301.30405  20920090.298 7  85664270.29307
G12  22670401.176 7 119133777.89007  22670401.947 6  92831493.97406  22670401.526 6  92831510.98006
G20  20204402.133 7 106174849.10007  20204400.189 5  82733639.72905
G25  22066627.918 7 115960910.48007  22066630.884 5  90359166.29405  22066632.673 5  90359166.30605
G29  22798947.178 6 119809282.78106  22798948.042 5  93357885.43705  22798948.664 5  93357893.43305
R03  23351378.533 4                  23351387.938 6  97223627.04306
R04                                  20142225.537 7  83891660.05207
R05  20613397.549 5 110190424.13905  20613407.119 6  85703703.76806
R11  22924238.921 4 122500256.22404  22924245.167 5  95277942.24805
R19                                  20929250.268 6  87077975.18806
R20                                  20271642.372 6  84312310.13506
> 2022 06 16 19 44  1.0000000  0 31
C11  22996940.235 7 119751140.07207  22996940.993 6  92599175.05806
C14  22033483.971 7 114734132.05107  22033482.838 6  88719698.71006
C21  25490115.985 7 132733724.03807
C28  23107436.357 7 120326484.27307
C33  23541173.475 7 122585078.68507
C34  24862305.055 6 129464544.10506
C37  26403428.522 4
E02  25835076.144 6 135764214.99806                                  25835077.829 5 104027154.61705
E04  25622612.830 6 134647737.77106  25622611.739 4                  25622615.579 5 103171660.49605
E09  27416506.108 6 144074704.07406                                  27416514.093 5
E11  22569375.410 7 118602867.32307                                  22569373.634 6  90877515.16006
E12  26319427.101 6 138309517.13706                                  26319429.180 5
E19  28436695.574 6 149435838.56406                                  28436698.185 4
E24  28657327.323 3
E25  25916512.670 6 136192221.34206  25916513.346 4                  25916517.468 6 104355069.28806
E36  25297061.854 7 132936933.35507  25297061.161 4                  25297065.302 5 101860804.08405
G02  21447163.557 7 112705614.29707  21447161.900 5  87822539.83405
G05  20745022.451 7 109015825.40907  20745022.086 6  84947392.95006  20745022.757 6  84947410.95406
G06  23523388.938 6 123616236.44806  23523392.736 4  96324360.25804  23523393.755 5  96324368.25105
G09  24805354.543 5 130353028.62905  24805359.212 3 101573808.23503  24805358.300 5 101573807.21705
G11  20920301.782 7 109936939.56507  20920302.356 5  85665168.91605  20920302.111 7  85665137.90507
G12  22670956.520 7 119136695.01207  22670957.049 6  92833767.05406  22670957.090 6  92833784.04906
G20  20204431.207 7 106175002.13407  20204429.335 5  82733758.97505
G25  22066796.485 7 115961796.02007  22066799.388 5  90359856.31805  22066801.476 5  90359856.35305
G29  22798330.787 6 119806042.98006  22798331.504 5  93355360.92005  22798332.170 5  93355368.92905
R03  23352040.105 4                  23352050.699 6  97226388.68306
R04                                  20142330.227 7  83892096.66807
R05  20612754.762 5 110186989.29705  20612764.596 6  85701032.20706
R11  22924126.978 4 122499669.13004  22924135.214 5  95277485.63405
R19                                  20929540.830 6  87079184.79606
R20                                  20271303.607 6  84310900.40506
> 2022 06 16 19 44  2.0000000  0 31
C11  22997237.844 7 119752689.24307  22997238.835 6  92600372.97106
C14  22033186.970 7 114732585.12407  22033186.020 6  88718502.56606
C21  25490606.679 7 132736278.10707
C28  23106995.092 7 120324187.45507
C33  23540607.779 7 122582133.93107
C34  24862747.629 6 129466848.08406
C37  26403735.494 4
E02  25835046.681 6 135764060.58606                                  25835048.299 5 104027036.32605
E04  25622257.331 7 134645868.74007  25622255.914 4                  25622259.946 5 103170228.42105
E09  27415881.605 6 144071423.20106                                  27415889.644 5
E11  22569377.253 7 118602877.49907                                  22569375.656 6  90877522.96806
E12  26319752.255 6 138311226.13306                                  26319754.459 5 105978743.83015
E19  28436869.972 6 149436754.11506                                  28436872.314 4
E24  28657863.618 3
E25  25916915.930 6 136194341.38206  25916916.333 4                  25916920.862 6 104356693.75106
E36  25296714.785 6 132935110.14306  25296714.561 4                  25296718.272 5 101859407.11005
G02  21447281.957 7 112706235.12607  21447280.067 5  87823023.59605
G05  20744610.369 7 109013659.94907  20744610.008 6  84945705.57406  20744610.835 6  84945723.59206
G06  23523852.002 6 123618668.25706  23523855.468 4  96326255.17704  23523857.136 5  96326263.16405
G09  24805668.562 5 130354684.69605  24805674.421 3 101575098.67003  24805674.859 5 101575097.64705
G11  20920513.710 7 109938052.82607  20920514.181 5  85666036.38805  20920514.172 7  85666005.39107
G12  22671511.668 7 119139611.73607  22671512.089 6  92836039.82406  22671512.067 6  92836056.83606
G20  20204460.112 7 106175155.16607  20204458.459 5  82733878.22205
G25  22066964.895 7 115962681.11507  22066967.812 5  90360546.00405  22066969.972 5  90360546.00705
G29  22797714.754 7 119802802.24907  22797714.814 5  93352835.67805  22797715.753 5  93352843.69005
R03  23352702.455 4                  23352713.787 6  97229150.20706
R04                                  20142435.086 7  83892533.74107
R05  20612113.201 6 110183554.77106  20612122.180 6  85698360.91506
R11  22924016.551 4 122499081.71204  22924025.888 5  95277028.74705
R19                                  20929832.550 6  87080394.51506
R20                                  20270964.260 6  84309490.14706
> 2022 06 16 19 44  3.0000000  0 31
C11  22997535.842 7 119754241.38707  22997536.645 6  92601573.17906
C14  22032890.175 7 114731040.14307  22032889.373 6  88717307.86706
C21  25491097.797 7 132738833.59007
C28  23106553.564 7 120321887.26807
C33  23540042.239 7 122579190.21507
C34  24863191.201 7 129469155.97507
C37  26404040.602 4
E02  25835016.533 7 135763902.35207                                  25835018.137 5 104026915.01005
E04  25621902.365 7 134644003.20507  25621900.974 4                  25621904.912 5 103168799.00705
E09  27415257.970 6 144068144.33506                                  27415265.388 5
E11  22569379.131 7 118602887.39207                                  22569377.471 6  90877530.52106
E12  26320078.411 6 138312938.28706                                  26320079.962 5 105980055.77605
E19  28437044.159 6 149437671.72306                                  28437046.806 5
E24  28658401.483 3
E25  25917318.895 6 136196459.18206  25917319.700 4                  25917323.442 6 104358316.48706
E36  25296367.152 7 132933283.04707  25296367.898 4                  25296370.764 5 101858007.09405
G02  21447400.469 7 112706856.61007  21447398.323 5  87823507.86905
G05  20744198.081 7 109011494.17107  20744197.881 6  84944017.96006  20744198.842 6  84944035.96306
G06  23524314.984 6 123621103.16406  23524318.813 4  96328152.51204  23524320.101 5  96328160.47705
G09  24805983.445 5 130356342.08705  24805989.836 3 101576390.14203  24805989.577 4 101576389.26904
G11  20920725.732 7 109939167.10507  20920726.221 5  85666904.66205  20920726.122 7  85666873.66307
G12  22672066.364 7 119142527.49207  22672066.928 6  92838311.84206  22672067.438 6  92838328.78506
G20  20204488.963 7 106175308.81407  20204487.681 5  82733997.95005
G25  22067132.648 7 115963563.09807  22067135.623 5  90361233.25505  22067136.808 5  90361233.29005
G29  22797097.527 7 119799557.71107  22797097.390 5  93350307.46505  22797098.405 5  93350315.46705
R03  23353364.792 4                  23353377.524 6  97231912.10706
R04                                  20142540.156 7  83892972.70707
R05  20611469.931 6 110180122.67406  20611479.902 6  85695691.51206
R11  22923904.949 4 122498490.65704  22923915.738 5  95276569.13505
R19                                  20930123.921 6  87081606.38306
R20                                  20270624.166 6  84308078.16906
> 2022 06 16 19 44  4.0000000  0 30
C11  22997834.506 7 119755796.76007  22997835.381 6  92602775.91006
C14  22032593.622 7 114729496.95807  22032593.007 6  88716114.58806
C21  25491589.018 7 132741390.73407
C28  23106111.173 7 120319582.86207
C33  23539476.981 7 122576247.05607
C34  24863635.832 7 129471468.01807
C37  26404344.556 4
E02  25834985.513 6 135763738.98606                                  25834987.413 5 104026789.89805
E04  25621548.105 7 134642141.48907  25621546.576 4                  25621550.277 5 103167372.41805
E09  27414634.555 6 144064867.20706                                  27414641.395 5
E11  22569380.893 7 118602896.78207                                  22569379.143 6  90877537.70606
E12  26320404.840 6 138314654.02606                                  26320406.122 5 105981370.44605
E19  28437219.349 6 149438591.56806                                  28437221.843 5
E25  25917721.113 6 136198573.50106  25917722.240 5                  25917725.678 6 104359936.49606
E36  25296018.705 7 132931451.01007  25296018.893 4                  25296022.187 5 101856603.36105
G02  21447519.034 7 112707478.71907  21447516.696 5  87823992.63305
G05  20743785.690 7 109009327.41507  20743785.579 6  84942329.57806  20743786.487 6  84942347.59406
G06  23524778.835 7 123623541.60207  23524782.865 5  96330052.59605  23524784.166 6  96330060.59606
G09  24806298.784 5 130358001.13605  24806305.421 3 101577682.91203
G11  20920937.830 7 109940282.48907  20920938.453 5  85667773.79705  20920938.413 7  85667742.80007
G12  22672620.778 7 119145441.35607  22672621.432 6  92840582.37106  22672621.803 6  92840599.35106
G20  20204518.096 7 106175462.92007  20204516.965 4  82734118.03004
G25  22067299.712 7 115964440.89707  22067302.633 5  90361917.26705  22067304.020 5  90361917.24705
G29  22796479.317 7 119796308.39307  22796479.081 5  93347775.52305  22796480.208 5  93347783.49005
R03  23354029.306 4                  23354040.549 6  97234674.51606
R04                                  20142646.102 7  83893413.75507
R05  20610828.870 5 110176692.83005  20610838.104 6  85693023.87206
R11  22923792.613 4 122497895.28804  22923804.632 6  95276106.08106
R19                                  20930415.931 6  87082820.67606
R20                                  20270283.665 6  84306663.98206
> 2022 06 16 19 44  5.0000000  0 30
C11  22998133.653 7 119757354.54007  22998134.756 6  92603980.46806
C14  22032297.538 7 114727955.29507  22032296.995 6  88714922.46106
C21  25492080.092 6 132743949.24606
C28  23105668.384 7 120317275.90907
C33  23538911.992 7 122573304.52807
C34  24864081.022 7 129473783.02407
C37  26404645.599 4
E02  25834953.908 6 135763572.79006                                  25834956.165 5 104026662.48805
E04  25621194.418 7 134640282.50407  25621193.045 4                  25621196.469 5 103165948.06305
E09  27414011.349 6 144061591.32106                                  27414018.011 5
E11  22569382.753 7 118602906.04307                                  22569380.816 6  90877544.81406
E12  26320731.943 6 138316372.37006                                  26320732.756 5 105982687.09805
E19  28437394.466 6 149439513.30006                                  28437397.493 4
E25  25918123.161 6 136200685.76806  25918124.275 5                  25918127.351 6 104361555.03406
E36  25295669.623 7 132929615.96107  25295669.247 4                  25295672.940 5 101855197.26205
G02  21447637.679 7 112708101.49307  21447635.200 5  87824477.91605
G05  20743373.147 7 109007160.34907  20743373.211 6  84940640.96306  20743374.078 6  84940658.97606
G06  23525243.168 7 123625982.65207  23525247.422 5  96331954.71005  23525248.549 6  96331962.70506
G09  24806614.100 5                                                  24806619.092 4
G11  20921150.120 7 109941398.87107  20921150.837 5  85668643.69805  20921150.689 7  85668612.67807
G12  22673174.834 7 119148354.19407  22673175.730 6  92842852.11206  22673176.396 6  92842869.12406
G20  20204547.505 7 106175617.64807  20204546.371 4  82734238.59204
G25  22067466.173 6 115965316.26906  22067469.215 5  90362599.36905
G29  22795860.793 7 119793056.18907  22795860.190 5  93345241.32505  22795861.313 5  93345249.30605
R03  23354693.369 4                  23354703.588 6  97237437.45806
R04                                  20142752.487 7  83893856.56307
R05  20610186.920 5 110173264.72905  20610196.467 6  85690357.56006
R11  22923681.721 4 122497297.54804  22923693.329 6  95275641.05906
R19                                  20930708.161 6  87084036.81106
R20                                  20269943.303 6  84305248.56706
> 2022 06 16 19 44  6.0000000  0 30
C11  22998432.194 7 119758910.94107  22998433.762 6  92605183.97806
C14  22032001.086 7 114726413.03907  22032000.817 6  88713729.86706
C21  25492571.343 7 132746507.89107
C28  23105226.065 7 120314971.07707
C33  23538346.631 7 122570361.36107
C34  24864525.243 6 129476096.02306
C37  26404948.659 4
E02  25834922.747 6 135763409.46006                                  25834925.202 5 104026537.29105
E04  25620840.452 7 134638422.01407  25620839.390 4                  25620842.307 5 103164522.44305
E09  27413387.737 6 144058313.61606                                  27413394.997 4
E11  22569384.506 7 118602915.78507                                  22569382.682 5  90877552.31605
E12  26321058.678 6 138318089.25506                                  26321059.760 5 105984002.54305
E19  28437570.000 5 149440435.06505                                  28437573.044 4
E25  25918525.420 5 136202799.15505  25918526.677 4                  25918529.626 6 104363174.46506
E36  25295320.915 7 132927783.09707  25295320.142 4                  25295324.011 5 101853792.93405
G02  21447756.084 7 112708724.29407  21447753.693 5  87824963.21305
G05  20742960.780 7 109004993.81107  20742960.950 6  84938952.75506  20742961.783 6  84938970.80506
G06  23525707.292 6 123628422.28006  23525711.702 5  96333855.71805  23525712.435 6  96333863.76106
G09  24806931.040 5                  24806937.365 3                  24806937.333 5
G11  20921362.498 7 109942515.22707  20921363.228 5  85669513.58705  20921363.158 7  85669482.54007
G12  22673729.115 7 119151267.44207  22673730.099 6  92845122.17306  22673730.414 6  92845139.24006
G20  20204576.850 7 106175772.74507  20204575.855 4  82734359.44804
G25  22067633.008 5 115966193.99505  22067636.261 4  90363283.34404  22067637.835 4  90363283.30904
G29  22795242.491 7 119789806.59207  22795241.830 5  93342709.16905  22795242.169 6  93342717.11006
R03  23355354.769 4                  23355367.546 6  97240201.08506
R04                                  20142858.996 6  83894299.49906
R05  20609545.983 5 110169835.74605  20609555.397 6  85687690.59906
R11  22923572.461 4 122496702.89004  22923581.566 5  95275178.60005
R19                                  20931000.889 6  87085252.14906
R20                                  20269603.639 6  84303834.56106
> 2022 06 16 19 44  7.0000000  0 30
C11  22998730.642 7 119760464.83807  22998731.805 6  92606385.53506
C14  22031704.416 7 114724868.89407  22031704.387 6  88712535.81106
C21  25493062.637 7 132749066.98007
C28  23104784.071 7 120312669.38407
C33  23537781.071 7 122567415.83407
C34  24864968.578 6 129478405.29206
C37  26405250.659 4
E02  25834892.377 6 135763249.91906                                  25834894.895 5 104026415.06905
E04  25620486.023 7 134636558.47107  25620484.960 4                  25620487.828 5 103163094.51205
E09  27412763.244 6 144055031.93806                                  27412770.530 5
E11  22569386.421 6 118602926.14906                                  22569384.497 5  90877560.21605
E12  26321384.951 6 138319803.69306                                  26321386.061 4 105985316.19304
E19  28437745.586 6 149441356.87306                                  28437748.533 5
E25  25918927.437 6 136204913.12706  25918928.967 4                  25918931.503 5 104364794.21605
E36  25294972.445 6 132925953.26106  25294972.053 5                  25294975.592 5 101852390.74305
G02  21447874.488 7 112709347.01807  21447872.173 5  87825448.44905
G05  20742548.494 7 109002826.95007  20742548.636 6  84937264.30606  20742549.850 6  84937282.34306
G06  23526171.183 7 123630859.73007  23526175.548 5  96335755.03805  23526176.351 5  96335763.06805
G09  24807248.228 6 130362960.42416  24807253.685 3 101581556.68913  24807253.727 5
G11  20921574.953 7 109943631.38907  20921575.616 5  85670383.31405  20921575.855 7  85670352.29507
G12  22674283.183 7 119154179.81607  22674284.318 6  92847391.55706  22674284.908 6  92847408.60506
G20  20204606.146 7 106175927.83307  20204605.345 4  82734480.28804
G25  22067800.818 6 115967074.21306  22067803.744 4  90363969.19604  22067803.966 4  90363969.22804
G29  22794624.763 7 119786560.65107  22794624.162 5  93340179.84605  22794624.891 6  93340187.80406
R03  23356020.973 4                  23356032.046 6
R04                                  20142965.640 6  83894742.20706
R05  20608903.796 5 110166404.16205  20608913.385 7  85685021.52607
R11  22923460.648 4 122496113.55304  22923472.107 6  95274720.10806
R19                                  20931292.395 6  87086466.26606
R20                                  20269264.287 6  84302422.69006
> 2022 06 16 19 44  8.0000000  0 30
C11  22999028.957 7 119762017.98007  22999029.997 6  92607586.55306
C14  22031407.770 7 114723324.27207  22031407.464 6  88711341.44506
C21  25493554.328 7 132751627.68007
C28  23104342.606 7 120310370.25807
C33  23537215.096 7 122564469.22107
C34  24865411.907 6 129480713.04506
C37  26405555.270 4
E02  25834862.665 6 135763093.56506                                  25834864.976 5 104026295.15205
E04  25620131.231 7 134634693.84307  25620130.060 5                  25620132.898 6 103161665.75506
E09  27412138.419 6 144051748.01606                                  27412145.555 5
E11  22569388.526 6 118602937.80106                                  22569386.566 5  90877569.13305
E12  26321710.969 6 138321517.61006                                  26321712.279 4 105986629.52704
E19  28437921.653 6 149442280.21806                                  28437924.031 4
E25  25919329.989 6 136207027.53906  25919331.179 3
E36  25294624.833 6 132924125.91106  25294624.516 4                  25294627.944 5 101850990.46005
G02  21447993.240 7 112709970.64907  21447990.858 4  87825934.38304
G05  20742136.140 7 109000660.44207  20742136.382 6  84935576.12406  20742137.634 6  84935594.09006
G06  23526634.956 6 123633296.93106  23526639.357 5  96337654.14305  23526640.462 5  96337662.13305
G09  24807565.380 6 130364624.67006  24807570.367 3 101582853.49903  24807570.228 5
G11  20921787.541 7 109944748.51007  20921788.195 5  85671253.77805  20921788.268 6  85671222.77706
G12  22674837.464 6 119157092.00906  22674838.498 6  92849660.83306  22674838.932 5  92849677.82105
G20  20204635.878 7 106176083.79107  20204635.021 4  82734601.80604
G25  22067968.663 5 115967956.74005  22067971.660 4  90364656.86004  22067972.129 4  90364656.95304
G29  22794007.703 7 119783317.95707  22794007.199 6  93337653.04706  22794008.764 6  93337661.09806
R03  23356683.344 4                  23356697.413 6
R04                                  20143071.532 6  83895185.78806
R05  20608261.725 6 110162971.53706  20608271.245 7  85682351.71207
R11  22923350.731 4                  22923362.782 6  95274265.00706
R19                                  20931584.992 6  87087680.41606
R20                                  20268925.906 6  84301012.89106
> 2022 06 16 19 44  9.0000000  0 30
C11  22999327.103 7 119763570.25907  22999327.910 6  92608786.81806
C14  22031111.297 7 114721779.76707  22031110.910 6  88710147.05606
C21  25494046.179 6 132754188.42506
C28  23103901.539 7 120308073.46607
C33  23536649.414 7 122561522.78707
C34  24865854.499 7 129483019.31707
C37  26405859.153 5
E02  25834833.192 6 135762939.76006                                  25834835.767 5 104026177.47305
E04  25619776.265 7 134632828.21407  25619775.241 5                  25619777.901 6 103160236.22206
E09  27411513.353 6 144048463.26006                                  27411520.212 5
E11  22569390.846 7 118602950.09507                                  22569388.847 5  90877578.53005
E12  26322036.857 6 138323230.34606                                  26322038.028 5 105987941.82405
E19  28438097.490 6 149443203.50506                                  28438099.860 4
E25  25919732.865 6 136209143.87806  25919733.978 4                  25919736.410 5 104368035.89405
E36  25294277.638 6 132922300.77706  25294277.576 4                  25294280.508 5 101849592.03105
G02  21448112.132 7 112710594.50707  21448109.647 4  87826420.48704
G05  20741724.259 7 108998495.09807  20741724.344 6  84933888.82906  20741725.302 6  84933906.83106
G06  23527098.596 6 123635732.91306  23527102.962 5  96339552.30105  23527104.540 5  96339560.32305
G09  24807882.333 6 130366289.39606  24807887.155 4 101584150.69804  24807887.606 5
G11  20922000.288 7 109945865.76007  20922000.749 5  85672124.35405  20922000.915 6  85672093.37906
G12  22675391.757 6 119160005.30806  22675392.881 6  92851930.92006  22675394.942 4  92851947.99804
G20  20204665.632 7 106176240.45807  20204664.869 5  82734723.87705
G25  22068138.455 5                                                  22068140.732 4  90365346.64004
G29  22793391.138 6 119780077.77006  22793390.697 5  93335128.22305  22793392.588 5  93335136.32105
R03  23357349.929 4                  23357362.638 6
R04                                  20143178.279 6  83895629.59706
R05  20607619.860 5 110159538.77805  20607629.031 6  85679681.82606
R11  22923242.134 3                  22923253.795 6  95273812.65406
R19                                  20931876.148 6  87088894.08006
R20                                  20268587.632 5  84299604.53305
> 2022 06 16 19 44 10.0000000  0 30
C11  22999625.105 7 119765122.13007  22999625.952 7  92609986.80807
C14  22030814.877 7 114720235.69607  22030814.419 6  88708953.15106
C21  25494537.803 6 132756749.01506
C28  23103460.610 7 120305778.50907
C33  23536083.847 7 122558577.22807
C34  24866297.159 7 129485324.82507
C37  26406163.724 4
E02  25834804.386 6 135762788.95806                                  25834807.193 6 104026061.71706
E04  25619421.330 7 134630962.24307  25619420.279 5                  25619422.983 6 103158806.45806
E09  27410888.167 6 144045178.52006                                  27410894.395 5
E11  22569393.436 7 118602962.98007                                  22569391.047 5  90877588.43405
E12  26322362.614 6 138324942.05706                                  26322363.884 4 105989253.45304
E19  28438273.069 5 149444126.67805                                  28438275.340 4
E25  25920136.026 6 136211262.38706  25920137.113 4                  25920139.576 5 104369659.14805
E36  25293930.323 6 132920477.75006  25293930.417 4                  25293933.739 5 101848195.14705
G02  21448230.768 7 112711218.59507  21448228.453 4  87826906.78004
G05  20741312.628 7 108996331.38607  20741312.625 6  84932202.81606  20741313.447 6  84932220.77806
G06  23527561.991 6 123638167.96706  23527566.378 5  96341449.75305  23527567.715 5  96341457.75705
G09  24808199.013 6 130367954.17706  24808203.929 3 101585447.91403  24808204.465 5
G11  20922212.846 7 109946983.19407  20922213.330 5  85672995.07705  20922213.496 6  85672964.04606
G12  22675946.936 6 119162920.36906  22675947.568 5  92854202.38505  22675949.589 4  92854219.40404
G20  20204695.838 7 106176398.04007  20204694.856 5  82734846.65605
G25  22068306.909 6                  22068310.255 4                  22068309.911 5  90366038.63805
G29  22792774.881 6                  22792774.516 4                  22792777.476 5  93332613.29005
R03  23358014.953 4                  23358026.656 5
R04                                  20143284.864 6  83896073.93506
R05  20606977.967 5 110156106.66605  20606987.644 6  85677012.43206
R11  22923132.816 3                  22923146.503 5  95273362.12405
R19                                  20932167.761 6  87090107.43106
R20                                  20268249.117 6  84298197.33606
> 2022 06 16 19 44 11.0000000  0 30
C11  22999923.011 7 119766673.15707  22999923.725 6  92611186.17406
C14  22030518.623 7 114718691.02207  22030517.768 7  88707758.71307
C21  25495029.642 6 132759309.99006
C28  23103020.242 7 120303484.30407
C33  23535518.184 7 122555630.62307
C34  24866739.630 7 129487629.03707
C37  26406471.922 4
E02  25834775.915 6 135762639.17406                                  25834778.819 5 104025947.09505
E04  25619065.949 7 134629095.31807  25619064.849 5                  25619067.621 6 103157375.92706
E09  27410262.246 6 144041891.86406                                  27410269.427 5
E11  22569395.953 7 118602976.03207                                  22569393.409 5  90877598.43805
E12  26322688.262 6 138326653.18506                                  26322689.181 5 105990564.51605
E19  28438448.720 5 149445050.35505                                  28438451.239 4
E25  25920539.417 6 136213380.69406  25920540.566 4                  25920542.633 5 104371282.16405
E36  25293583.675 6 132918655.28806  25293583.717 4                  25293587.328 5 101846798.90505
G02  21448349.427 7 112711842.71107  21448347.273 4  87827393.09604
G05  20740900.969 7 108994167.38407  20740900.851 6  84930516.57206  20740901.685 6  84930534.49606
G06  23528025.454 6 123640602.41806  23528029.725 5  96343346.72105  23528031.078 5  96343354.70205
G09  24808515.853 6 130369619.68506  24808520.806 3 101586745.69303  24808521.718 5
G11  20922425.502 7 109948100.69307  20922425.931 4  85673865.84504  20922426.042 6  85673834.81706
G12  22676501.672 6 119165834.72406  22676502.085 5  92856473.33605  22676504.193 5  92856490.23805
G20  20204725.975 7 106176555.69207  20204724.831 4  82734969.48404
G25  22068475.922 7 115970618.79607  22068479.369 4  90366733.04914  22068479.117 5  90366731.14205
G29  22792158.921 6                                                  22792161.209 5  93330090.89705
R03  23358678.061 4                  23358691.713 5  97254036.18405
R04                                  20143391.745 6  83896518.68006
R05  20606335.430 5 110152673.69405  20606345.491 6  85674342.26206
R11  22923026.389 3                  22923037.020 5  95272913.51805
R19                                  20932459.333 6  87091320.47606
R20                                  20267910.759 6  84296790.85706
> 2022 06 16 19 44 12.0000000  0 30
C11  23000220.466 7 119768222.33807  23000221.222 6  92612384.04606
C14  22030221.452 7 114717144.03707  22030220.658 6  88706562.44606
C21  25495521.782 6 132761873.62106
C28  23102580.067 6 120301192.58306
C33  23534951.255 7 122552680.04607
C34  24867181.730 7 129489930.21407
C37  26406776.725 4
E02  25834748.141 6 135762491.99806                                  25834750.805 5 104025834.16305
E04  25618710.253 7 134627225.85407  25618709.189 4                  25618711.958 6 103155943.44106
E09  27409636.066 6 144038599.63506                                  27409643.091 5
E11  22569398.491 6 118602990.11906                                  22569396.303 5  90877609.22305
E12  26323013.812 6 138328363.38206                                  26323014.681 5 105991874.91805
E19  28438624.817 5 149445976.17405                                  28438627.327 4
E25  25920941.926 6 136215496.65106  25920943.562 4                  25920945.702 5 104372903.61005
E36  25293237.249 6 132916834.65106  25293237.551 3                  25293241.103 5 101845403.65705
G02  21448468.408 7 112712467.49007  21448466.170 4  87827879.93104
G05  20740488.931 7 108992001.43207  20740488.705 6  84928828.79606  20740489.307 6  84928846.76006
G06  23528488.690 7 123643036.46107  23528492.976 5  96345243.36405  23528493.980 5  96345251.45705
G09  24808833.232 6 130371288.54206  24808838.345 3 101588046.10303  24808839.181 5
G11  20922638.241 7 109949218.96207  20922638.681 4  85674737.21704  20922638.765 7  85674706.21107
G12  22677055.458 6 119168745.50006  22677055.998 5  92858741.44105  22677057.732 5  92858758.36105
G20  20204755.890 7 106176713.37207  20204754.829 4  82735092.33904
G25  22068644.948 7 115971508.17807  22068648.448 4  90367426.10604  22068648.453 6  90367424.14106
G29  22791543.217 6 119770367.06006  22791543.210 4  93327558.03214  22791545.252 5  93327570.98205
R03  23359350.494 4                  23359358.055 5  97256807.51705
R04                                  20143498.689 7  83896964.04007
R05  20605692.600 5 110149237.04705  20605702.641 6  85671669.32506
R11  22922918.140 4                  22922931.747 5  95272466.62505
R19                                  20932750.201 6  87092533.37906
R20                                  20267573.378 6  84295386.60506
> 2022 06 16 19 44 13.0000000  0 30
C11  23000517.742 7 119769770.40207  23000518.675 6  92613581.13606
C14  22029924.195 7 114715595.48107  22029923.389 6  88705365.00806
C21  25496015.066 6 132764440.96006
C28  23102140.448 6 120298904.87906
C33  23534383.940 7 122549726.09507
C34  24867623.272 7 129492228.93407
C37  26407082.312 4
E02  25834721.034 6 135762349.05306                                  25834723.799 5 104025724.70005
E04  25618354.218 7 134625354.50507  25618352.711 4                  25618355.945 6 103154509.62706
E09  27409008.580 6 144035302.34906                                  27409015.584 5
E11  22569401.678 6 118603006.51806                                  22569399.407 5  90877621.77605
E12  26323339.389 6 138330073.67206                                  26323340.339 5 105993185.48205
E19  28438801.810 6 149446905.56206                                  28438804.359 4
E25  25921344.505 7 136217611.61007  25921346.076 4                  25921348.514 5 104374524.16005
E36  25292891.450 6 132915017.21606  25292891.783 4                  25292894.983 5 101844011.17105
G02  21448587.682 7 112713094.11807  21448585.351 4  87828368.21204
G05  20740076.675 7 108989834.49907  20740076.373 6  84927140.26306  20740077.396 6  84927158.28806
G06  23528951.920 6 123645471.01606  23528956.260 5  96347140.42805  23528957.572 6  96347148.44106
G09  24809151.890 5 130372961.79905  24809156.810 3 101589349.92003  24809157.212 5
G11  20922851.446 7 109950339.18107  20922851.855 4  85675610.10604  20922851.877 6  85675579.08106
G12  22677608.881 7 119171654.13507  22677609.502 5  92861007.89905  22677610.504 5  92861024.83605
G20  20204785.912 7 106176872.11607  20204785.030 4  82735216.03004
G25  22068814.529 6 115972399.90806  22068817.994 5  90368120.99305  22068818.571 6  90368118.99306
G29  22790928.690 6 119767138.15406  22790928.856 4  93325041.99204  22790930.344 5  93325055.00005
R03  23360012.621 4                  23360024.670 6  97259582.75306
R04                                  20143606.076 6  83897410.97506
R05  20605048.694 5 110145797.37605  20605059.369 6  85668994.01106
R11  22922813.705 4                  22922824.299 6  95272025.33106
R19                                  20933041.771 6  87093746.70806
R20                                  20267236.846 6  84293985.76106
> 2022 06 16 19 44 14.0000000  0 31
C11  23000814.942 7 119771318.28307  23000816.007 6  92614778.08706
C14  22029626.735 7 114714046.01407  22029625.569 6  88704166.80206
C21  25496508.787 6 132767012.93306
C28  23101701.998 6
C33  23533816.319 7 122546769.32607
C34  24868064.539 7 129494526.20407
C37  26407387.960 5
E02  25834694.423 6 135762209.77306                                  25834697.419 5 104025617.95305
E04  25617998.020 7 134623482.26707  25617996.211 4                  25617999.787 6 103153075.03706
E09  27408380.180 6 144032000.67506                                  27408387.276 4
E11  22569405.252 6 118603025.59106                                  22569403.122 5  90877636.39105
E12  26323665.059 6 138331785.04306                                  26323666.055 5 105994496.75205
E19  28438979.451 5 149447839.09905                                  28438982.262 4
E25  25921746.807 7 136219725.56007  25921747.909 5                  25921750.589 5 104376143.92505
E36  25292545.868 6 132913202.76806  25292545.988 4                  25292549.411 5 101842620.91505
G02  21448707.288 7 112713723.09407  21448705.066 4  87828858.32504
G05  20739664.265 7 108987666.93007  20739663.936 6  84925451.24006  20739665.046 6  84925469.23106
G06  23529415.476 6 123647907.06906  23529419.863 5  96349038.64605  23529421.280 6  96349046.66806
G09  24809471.359 6 130374640.33306  24809476.300 3 101590657.86903  24809476.396 5
G11  20923065.285 7 109951461.92607  20923065.527 4  85676484.96904  20923065.667 6  85676453.96406
G12  22678161.514 6 119174560.16606  22678162.475 5  92863272.30405  22678162.758 4  92863289.39804
G13  24989527.589 5 131320853.43715
G20  20204816.392 7 106177032.40807  20204815.498 4  82735340.94004
G25  22068984.303 7 115973292.91107  22068987.887 5  90368816.84105  22068988.892 6  90368814.81706
G29  22790315.464 6 119763913.68106  22790315.330 4  93322529.39604  22790315.921 5  93322542.66205
R03  23360678.897 4                  23360691.989 6  97262362.56106
R04                                  20143713.879 7  83897859.97507
R05  20604405.037 5 110142355.50305  20604415.938 6  85666316.96606
R11  22922709.136 5                  22922719.232 6  95271589.82106
R19                                  20933333.871 6  87094961.22706
R20                                  20266900.684 6  84292588.27506
> 2022 06 16 19 44 15.0000000  0 31
C11  23001112.159 7 119772865.83607  23001113.180 6  92615974.74506
C14  22029328.905 7 114712495.45507  22029327.921 6  88702967.89406
C21  25497003.145 6 132769588.46506
C28  23101263.771 7
C33  23533247.963 7 122543809.82607
C34  24868505.054 7 129496822.13707
C37  26407693.901 5
E02  25834668.256 6 135762072.86206                                  25834671.225 5 104025513.00505
E04  25617641.498 7 134621609.04207  25617639.590 4                  25617643.406 6 103151639.73806
E09  27407751.161 6 144028694.97006                                  27407758.141 5
E11  22569409.074 6 118603046.53306                                  22569407.156 5  90877652.45505
E12  26323990.849 6 138333497.17406                                  26323991.961 5 105995808.50705
E19  28439157.728 5 149448776.08505                                  28439160.479 4
E25  25922148.981 6 136221838.14806  25922149.903 4                  25922152.470 5 104377762.58405
E36  25292201.055 7 132911390.19507  25292200.739 4                  25292204.230 5 101841232.01405
G02  21448827.315 7 112714353.76807  21448825.161 4  87829349.76004
G05  20739251.518 7 108985498.34407  20739251.297 6  84923761.43106  20739252.046 6  84923779.47606
G06  23529879.303 6 123650344.18906  23529883.713 5  96350937.69905  23529885.313 6  96350945.68206
G09  24809791.292 6 130376322.95806  24809796.503 3 101591969.00003  24809797.092 5
G11  20923279.193 7 109952586.53307  20923279.547 4  85677361.28204  20923279.757 6  85677330.26206
G12  22678714.395 6 119177464.00106  22678715.066 4  92865535.02004  22678715.206 5  92865551.97305
G13  24988826.395 5 131317169.15305
G20  20204847.094 7 106177193.69807  20204846.152 4  82735466.62104
G25  22069154.298 7 115974187.05507  22069158.029 5  90369513.58805  22069159.117 6  90369511.59006
G29  22789702.472 6 119760692.90406  22789702.480 4  93320019.68604  22789703.109 5  93320032.69605
R03  23361347.476 4                  23361360.454 5  97265145.92105
R04                                  20143822.105 7  83898310.60307
R05  20603760.816 5 110138911.28505  20603772.068 6  85663638.16306
R11  22922606.257 4                  22922614.559 6  95271158.55806
R19                                  20933625.438 6  87096176.63506
R20                                  20266564.944 6  84291193.43706
> 2022 06 16 19 44 16.0000000  0 31
C11  23001409.602 7 119774413.91407  23001410.584 6  92617171.80406
C14  22029031.271 7 114710945.24507  22029030.215 6  88701769.15406
C21  25497498.171 6 132772165.91006
C28  23100825.918 7
C33  23532679.791 7 122540849.83407
C34  24868946.056 7 129499118.15107
C37  26408001.086 4
E02  25834642.490 6 135761937.39406                                  25834645.456 5 104025409.20205
E04  25617284.981 6 134619736.28706  25617283.488 4                  25617286.984 5 103150204.73805
E09  27407121.778 6 144025388.07206                                  27407128.581 5
E11  22569413.292 6 118603068.55606                                  22569411.430 5  90877669.30205
E12  26324316.767 6 138335210.00206                                  26324317.818 5 105997121.05805
E19  28439336.455 5 149449714.94105                                  28439339.442 4
E25  25922550.765 6 136223950.44106  25922552.072 4                  25922554.153 5 104379381.00005
E36  25291856.396 6 132909578.46506  25291856.075 4                  25291859.418 5 101839843.80605
G02  21448947.504 7 112714985.53007  21448945.322 4  87829842.04304
G05  20738838.674 7 108983329.80407  20738838.659 6  84922071.66006  20738839.276 6  84922089.64906
G06  23530343.081 6 123652782.18906  23530347.715 5  96352837.43905  23530349.634 6  96352845.50306
G09  24810112.122 5 130378007.66705  24810117.129 3 101593281.75503  24810118.007 5
G11  20923493.271 7 109953712.30807  20923493.780 4  85678238.50604  20923494.205 6  85678207.51306
G12  22679266.951 6                                                  22679267.672 5  92867814.14705
G13  24988124.777 5 131313483.53805
G20  20204877.958 7 106177356.00307  20204877.031 4  82735593.09204
G25  22069324.447 6 115975081.99206  22069328.297 5  90370210.94805  22069329.007 5  90370209.06805
G29  22789089.824 7 119757473.27407  22789089.837 4  93317510.88804  22789090.094 6  93317523.86406
R03  23362018.586 4                  23362029.816 6  97267931.00506
R04                                  20143930.545 7  83898762.69807
R05  20603116.423 5 110135467.14005  20603127.401 6  85660959.37906
R11  22922502.757 4                  22922511.057 6  95270728.55806
R19                                  20933918.022 6  87097392.86106
R20                                  20266229.886 6  84289799.72806
> 2022 06 16 19 44 17.0000000  0 31
C11  23001707.238 7 119775963.31307  23001708.276 6  92618369.89806
C14  22028733.897 7 114709396.60807  22028732.717 6  88700571.62706
C21  25497993.343 6 132774744.24006
C28  23100388.074 6
C33  23532111.483 7 122537891.33907
C34  24869387.444 7 129501415.68307
C37  26408308.443 5
E02  25834616.688 6 135761802.50706                                  25834620.029 5 104025305.82905
E04  25616928.884 7 134617865.07507  25616927.614 4                  25616930.927 6 103148770.98706
E09  27406492.770 5 144022082.57705                                  27406499.343 5
E11  22569417.601 6 118603091.31206                                  22569415.729 5  90877686.73205
E12  26324642.930 6 138336924.08606                                  26324644.071 5 105998434.35105
E19  28439515.425 5 149450655.01505                                  28439518.490 4
E25  25922952.855 7 136226063.41307  25922953.119 4                  25922956.315 5 104381000.04805
E36  25291511.769 6 132907767.02206  25291511.089 4                  25291514.953 5 101838455.74505
G02  21449067.931 7 112715618.13907  21449065.711 4  87830334.98304
G05  20738426.258 7 108981162.72207  20738426.297 6  84920383.02406  20738426.672 6  84920400.99606
G06  23530807.336 6 123655221.38606  23530811.915 5  96354738.11405  23530813.201 5  96354746.16905
G09  24810432.251 5 130379693.70705  24810438.001 3 101594595.56103  24810438.895 5
G11  20923707.757 7 109954839.12207  20923708.215 4  85679116.54504  20923708.710 6  85679085.55606
G12  22679819.401 7 119183272.47107  22679820.380 4  92870072.29014  22679820.508 5  92870077.20505
G13  24987423.934 6 131309799.44706
G20  20204909.101 7 106177519.56107  20204908.133 4  82735720.54004
G25  22069494.823 6 115975978.04906  22069498.767 5  90370909.18005  22069499.246 6  90370907.22006
G29  22788477.082 6 119754254.00806  22788477.266 5  93315002.36605  22788478.242 5  93315015.38505
R03  23362689.258 4                  23362697.631 6  97270716.84706
R04                                  20144039.371 7  83899216.12307
R05  20602472.833 5 110132024.92605  20602482.340 6  85658282.11006
R11  22922398.188 4                  22922408.380 6
R19                                  20934210.371 6  87098610.16006
R20                                  20265894.841 6  84288406.50006
> 2022 06 16 19 44 18.0000000  0 31
C11  23002005.051 7 119777513.48207  23002005.900 6  92619568.57806
C14  22028436.508 7 114707848.57907  22028435.502 6  88699374.58006
C21  25498488.997 6 132777324.52106
C28  23099950.425 6
C33  23531543.239 7 122534932.56507
C34  24869828.680 7 129503713.54207
C37  26408615.657 4
E02  25834591.303 6 135761669.10206                                  25834594.607 5 104025203.54405
E04  25616572.973 7 134615994.57107  25616571.785 4                  25616575.222 6 103147337.66706
E09  27405863.479 6 144018776.18006                                  27405870.226 5
E11  22569422.235 7 118603115.28407                                  22569420.281 5  90877705.10605
E12  26324969.268 6 138338639.04306                                  26324970.586 5 105999748.49405
E19  28439694.371 5 149451597.12705                                  28439697.650 4
E25  25923355.059 6 136228176.83406  25923355.301 4                  25923358.505 5 104382619.55305
E36  25291167.216 6 132905956.50706  25291166.305 4                  25291170.440 5 101837068.66105
G02  21449188.591 7 112716252.05707  21449186.304 4  87830828.94404
G05  20738013.922 7 108978996.04507  20738014.007 6  84918694.70406  20738014.848 6  84918712.71206
G06  23531271.806 7 123657661.65707  23531276.291 5  96356639.63105  23531277.512 5  96356647.69405
G09  24810753.077 5 130381382.03105  24810759.290 3 101595911.14303  24810760.168 4
G11  20923922.460 7 109955967.31407  20923922.891 4  85679995.65704  20923923.266 6  85679964.64406
G12  22680372.265 6 119186178.22706  22680373.398 4  92872336.51704  22680372.719 5  92872340.50905
G13  24986722.757 6 131306114.26406
G20  20204940.493 7 106177684.37907  20204939.488 4  82735848.96904
G25  22069665.693 6 115976874.77306  22069669.416 5  90371607.91805  22069669.355 6  90371605.92506
G29  22787864.778 6                  22787864.614 4                  22787867.134 5  93312507.92805
R03  23363357.184 4                  23363366.626 6  97273504.49906
R04                                  20144148.666 7  83899671.10707
R05  20601828.422 5 110128582.78105  20601838.357 6  85655604.94206
R11  22922296.575 4                  22922305.725 6
R19                                  20934503.038 6  87099828.34906
R20                                  20265560.189 6  84287014.52306
> 2022 06 16 19 44 19.0000000  0 31
C11  23002302.867 7 119779063.53607  23002303.530 6  92620767.16306
C14  22028138.933 7 114706299.88307  22028138.258 6  88698177.06806
C21  25498985.214 6 132779907.20106
C28  23099512.827 7
C33  23530974.617 7 122531971.81107
C34  24870270.012 7 129506010.73707
C37  26408923.054 4
E02  25834566.152 6 135761536.53206                                  25834569.394 5 104025102.07005
E04  25616217.121 7 134614123.63907  25616215.692 4                  25616219.365 6 103145904.11506
E09  27405233.884 6 144015467.04306                                  27405241.244 5
E11  22569427.035 6 118603140.26906                                  22569425.052 5  90877724.23705
E12  26325295.723 6 138340354.64406                                  26325297.056 5 106001062.96805
E19  28439874.165 5 149452541.58105                                  28439877.365 4
E25  25923756.852 6 136230287.98906  25923756.361 4                  25923760.643 5 104384237.07805
E36  25290822.827 6 132904146.38406  25290821.909 4                  25290826.163 5 101835681.58705
G02  21449309.462 7 112716886.90307  21449307.056 4  87831323.62604
G05  20737601.641 7 108976828.42607  20737601.542 6  84917005.65106  20737602.628 6  84917023.66106
G06  23531736.649 7 123660102.82807  23531740.822 5  96358541.84805  23531741.909 5  96358549.81805
G09  24811075.314 6 130383073.13506  24811081.067 3 101597228.89303  24811081.168 4
G11  20924137.428 7 109957096.65607  20924137.782 4  85680875.66404  20924138.305 6  85680844.65706
G12  22680924.176 6                  22680924.907 4                  22680925.021 5  92874601.48405
G13  24986021.188 6 131302426.35106
G20  20204971.983 7 106177849.74307  20204970.974 4  82735977.82504
G25  22069836.416 6 115977771.62306  22069840.076 5  90372306.76305  22069840.029 5  90372304.89305
G29  22787252.455 6 119747820.87206  22787252.612 4  93309990.74614  22787254.705 5  93310001.71805
R03  23364022.361 3                  23364036.501 6  97276294.46206
R04                                  20144258.411 7  83900127.35407
R05  20601184.274 5 110125139.39505  20601194.233 6  85652926.75406
R11  22922193.004 4                  22922203.715 6  95269446.18006
R19                                  20934795.589 6  87101047.26706
R20                                  20265225.896 6  84285623.87106
> 2022 06 16 19 44 20.0000000  0 31
C11  23002600.260 7 119780613.31707  23002600.909 6  92621965.57006
C14  22027841.239 7 114704750.56507  22027840.744 6  88696979.01306
C21  25499481.359 6 132782491.28506
C28  23099075.478 6
C33  23530405.607 7 122529009.49507
C34  24870711.190 7 129508307.24007
C37  26409230.621 3
E02  25834541.211 6 135761404.55706                                  25834544.213 5 104025001.01705
E04  25615861.007 7 134612252.30607  25615858.727 4                  25615863.243 6 103144470.20806
E09  27404604.042 6 144012155.63706                                  27404611.071 5
E11  22569431.944 6 118603165.54806                                  22569429.799 5  90877743.62205
E12  26325622.449 6 138342070.44006                                  26325623.493 5 106002377.73205
E19  28440054.049 5 149453487.34805                                  28440057.245 4
E25  25924158.449 7 136232397.90907  25924158.167 5                  25924162.389 6 104385853.87206
E36  25290478.461 6 132902336.21106  25290477.161 4                  25290481.792 5 101834294.54305
G02  21449430.410 7 112717522.11907  21449427.956 4  87831818.59504
G05  20737188.998 7 108974659.94507  20737188.912 6  84915315.92606  20737189.917 6  84915333.94106
G06  23532201.139 7 123662544.28407  23532205.421 5  96360444.27905  23532206.446 5  96360452.26105
G09  24811397.832 6 130384765.95906  24811403.107 3 101598547.96503  24811402.807 4
G11  20924352.481 7 109958226.51507  20924352.800 4  85681756.07004  20924353.001 7  85681725.06907
G12  22681476.095 7 119191980.76007  22681476.769 4  92876855.50214  22681476.930 5  92876861.44105
G13  24985318.970 6 131298736.06006
G20  20205003.577 7 106178015.27507  20205002.469 4  82736106.80504
G25  22070007.152 6 115978668.40306  22070010.735 5  90373005.56105  22070010.736 6  90373003.60506
G29  22786640.387 6 119744604.86606  22786640.658 4  93307484.78204  22786643.087 5  93307495.98205
R03  23364694.826 4                  23364707.110 5  97279085.62405
R04                                  20144368.381 7  83900584.48307
R05  20600539.885 5 110121694.98605  20600549.931 6  85650247.70806
R11  22922088.985 4                  22922101.437 5  95269022.28605
R19                                  20935089.015 6  87102266.44506
R20                                  20264891.881 6  84284233.71506
> 2022 06 16 19 44 21.0000000  0 31
C11  23002897.689 7 119782163.28207  23002898.653 7  92623164.08307
C14  22027543.469 7 114703201.48907  22027543.142 6  88695781.22406
C21  25499977.841 6 132785076.17606
C28  23098638.088 6 120280668.55806
C33  23529836.815 7 122526046.98507
C34  24871151.989 7 129510603.73207
C37  26409537.974 4
E02  25834516.369 6 135761272.84706                                  25834519.020 5 104024900.04405
E04  25615504.920 7 134610381.14907  25615502.830 4                  25615507.202 6 103143036.50306
E09  27403973.933 6 144008843.58406                                  27403980.787 5
E11  22569436.677 6 118603191.13306                                  22569434.672 5  90877763.26705
E12  26325949.083 6 138343786.37006                                  26325949.932 5 106003692.52905
E19  28440234.245 5 149454434.13005                                  28440237.103 4
E25  25924559.804 6 136234507.80106  25924559.737 4                  25924563.929 5 104387470.36705
E36  25290134.216 6 132900526.06506  25290132.649 4                  25290137.565 5 101832907.58805
G02  21449551.372 7 112718157.73107  21449548.928 4  87832313.87704
G05  20736776.429 7 108972491.64807  20736776.326 6  84913626.34606  20736777.177 6  84913644.35806
G06  23532665.675 6 123664986.01106  23532670.066 5  96362346.91805  23532670.973 5  96362354.82805
G09  24811720.326 6 130386460.03006  24811725.347 3 101599868.01303  24811725.976 5
G11  20924567.517 7 109959356.84807  20924567.934 4  85682636.84704  20924568.221 6  85682605.83406
G12  22682027.813 6 119194880.81006  22682028.608 4  92879115.24604  22682028.633 5  92879121.27505
G13  24984616.345 6 131295045.17606
G20  20205035.177 7 106178181.33407  20205034.056 4  82736236.20204
G25  22070177.901 7 115979565.32707  22070181.391 5  90373704.46505  22070181.585 6  90373702.44906
G29  22786027.781 6                  22786027.840 4                  22786030.551 5  93304990.41305
R03  23365365.846 4                  23365377.703 5  97281877.75605
R04                                  20144477.836 7  83901042.42707
R05  20599894.808 5 110118250.67505  20599905.872 6  85647568.82406
R11  22921985.945 3                  22921998.750 5  95268598.18405
R19                                  20935381.701 6  87103485.97806
R20                                  20264557.485 6  84282844.12706
> 2022 06 16 19 44 22.0000000  0 31
C11  23003195.095 7 119783712.73507  23003196.268 7  92624362.21907
C14  22027245.835 7 114701652.25507  22027245.534 6  88694583.26406
C21  25500474.086 6 132787660.82706
C28  23098200.877 7 120278391.35707
C33  23529267.783 7 122523084.06207
C34  24871592.783 7 129512899.62607
C37  26409845.568 4
E02                                                                  25834494.007 5 104024799.65105
E04  25615148.727 7 134608509.57407  25615146.688 4                  25615151.101 6 103141602.49506
E09  27403343.505 6 144005530.77206                                  27403350.521 5
E11  22569441.509 6 118603216.34606                                  22569439.282 5  90877782.56205
E12  26326275.396 6 138345501.72106                                  26326276.554 5 106005006.90505
E19  28440414.425 5 149455380.77605                                  28440417.345 4
E25  25924961.208 6 136236617.53706  25924960.966 4                  25924965.459 5 104389087.07905
E36  25289789.525 6 132898716.14206  25289788.580 4                  25289793.026 5 101831520.70105
G02  21449672.168 7 112718792.93007  21449669.815 4  87832808.83804
G05  20736363.754 7 108970323.29007  20736363.718 6  84911936.71806  20736364.247 6  84911954.70706
G06  23533130.182 7 123667427.13407  23533134.583 5  96364249.09105  23533135.208 5  96364257.08705
G09  24812043.214 6 130388154.01406  24812047.653 3 101601188.00303  24812047.955 5
G11  20924782.554 7 109960486.84407  20924782.962 4  85683517.36104  20924783.349 6  85683486.37206
G12  22682579.670 6 119197780.53106  22682580.413 4  92881374.76004  22682580.968 5  92881380.71805
G13  24983914.148 6 131291353.22806
G20  20205066.910 7 106178347.33607  20205065.624 4  82736365.55904
G25  22070348.732 6 115980462.65806  22070352.143 5  90374403.69005  22070352.418 5  90374401.82605
G29  22785415.919 6                  22785415.581 5                  22785417.863 5  93302485.06305
R03  23366038.629 4                  23366048.074 5  97284669.73005
R04                                  20144588.096 7  83901500.57507
R05  20599251.080 5 110114806.24005  20599261.566 6  85644889.86106
R11  22921886.854 3                  22921897.340 5  95268175.92605
R19                                  20935675.323 6  87104705.24806
R20                                  20264223.329 6  84281454.35606
> 2022 06 16 19 44 23.0000000  0 31
C11  23003492.545 7 119785261.80407  23003493.922 7  92625560.06207
C14  22026948.153 7 114700102.84307  22026947.816 6  88693385.12306
C21  25500970.483 6 132790245.32406
C28  23097763.785 7 120276113.83607
C33  23528698.749 7 122520120.64807
C34  24872033.587 7 129515194.98107
C37  26410151.413 4
E02  25834466.555 6 135761010.26406                                  25834468.755 5 104024698.90705
E04  25614792.602 7 134606637.75307  25614790.255 4                  25614794.942 6 103140168.20606
E09  27402712.766 6 144002217.05706                                  27402720.272 5
E11  22569446.299 6 118603241.14506                                  22569444.055 5  90877801.56105
E12  26326601.577 6 138347216.54806                                  26326603.099 5 106006320.87105
E19  28440594.654 5 149456327.47205                                  28440597.278 4
E25  25925362.636 7 136238726.57307  25925362.505 4                  25925366.614 5 104390703.17205
E36  25289444.925 6 132896905.02306  25289444.712 4                  25289448.319 5 101830133.15505
G02  21449793.051 7 112719427.70607  21449790.602 4  87833303.46904
G05  20735951.036 7 108968154.74307  20735951.078 6  84910246.94106  20735951.672 6  84910264.97006
G06  23533594.470 6 123669867.75906  23533599.027 5  96366150.87405  23533599.151 5  96366158.92305
G09  24812365.618 6 130389848.19206  24812370.052 3 101602508.13603  24812370.444 5
G11  20924997.468 7 109961616.56307  20924997.954 4  85684397.66304  20924998.215 6  85684366.67406
G12  22683131.279 6 119200679.77706  22683132.098 4  92883633.90104  22683132.791 5  92883639.86305
G13  24983211.594 6 131287660.38206
G20  20205098.448 7 106178513.23607  20205097.172 4  82736494.83404
G25  22070519.336 6 115981359.78506  22070522.827 5  90375102.75105  22070522.795 5  90375100.73505
G29  22784803.980 6                                                  22784805.602 5  93299979.49905
R03  23366706.644 4                  23366719.011 5  97287461.73005
R04                                  20144698.106 6  83901958.98906
R05  20598606.521 5 110111361.69805  20598617.004 6  85642210.74606
R11  22921784.655 4                  22921796.035 5
R19                                  20935968.611 6  87105924.27306
R20                                  20263889.090 6  84280064.45506
> 2022 06 16 19 44 24.0000000  0 31
C11  23003790.330 7 119786812.03207  23003791.591 6  92626758.77606
C14  22026650.898 7 114698554.84707  22026650.429 6  88692188.13806
C21  25501466.914 6 132792830.83706
C28  23097326.650 6 120273837.58506
C33  23528129.822 7 122517158.62907
C34  24872474.684 7 129517491.34607
C37  26410456.615 5
E02  25834441.623 6 135760880.09906                                  25834443.974 5 104024599.24505
E04  25614436.678 7 134604767.13407  25614434.622 4                  25614438.988 6 103138734.89806
E09  27402082.229 6 143998904.36306                                  27402089.626 5
E11  22569451.152 6 118603267.03906                                  22569449.025 5  90877821.42905
E12  26326928.159 6 138348932.24306                                  26326929.313 5 106007635.57205
E19  28440774.846 5 149457275.38605                                  28440777.816 4
E25  25925764.270 6 136240836.71206  25925763.641 4                  25925768.013 4 104392319.97604
E36  25289100.357 6 132895095.39106  25289100.138 4                  25289103.836 5 101828746.24205
G02  21449913.951 7 112720063.62307  21449911.604 4  87833798.99404
G05  20735538.542 7 108965987.72607  20735538.717 6  84908558.36106  20735539.244 6  84908576.36306
G06  23534059.106 6 123672309.30806  23534063.676 5  96368053.38005  23534064.238 5  96368061.36105
G09  24812688.337 6 130391543.67506  24812692.693 3 101603829.29503  24812692.588 4
G11  20925212.641 7 109962747.46607  20925213.148 4  85685278.88104  20925213.526 7  85685247.83707
G12  22683683.704 6                  22683684.204 5                  22683685.044 5  92885900.08905
G13  24982508.998 5 131283968.49305
G20  20205130.022 7 106178680.59207  20205129.015 4  82736625.24104
G25  22070690.353 6                  22070693.295 5                  22070693.679 5  90375801.12405
G29  22784192.343 6                  22784192.031 4                  22784193.072 5  93297474.55805
R03  23367375.613 4                  23367389.677 5  97290254.74305
R04                                  20144808.237 7  83902418.81507
R05  20597963.281 5 110107918.67905  20597973.073 6  85639532.78106
R11  22921684.039 4                  22921693.242 5
R19                                  20936261.127 6  87107144.22306
R20                                  20263555.488 6  84278675.48906
> 2022 06 16 19 44 25.0000000  0 31
C11  23004088.139 7 119788363.21207  23004089.476 6  92627958.26106
C14  22026353.648 7 114697008.05407  22026353.468 6  88690992.04806
C21  25501963.551 6 132795417.54006
C28  23096889.636 7 120271561.55107
C33  23527561.070 7 122514197.41907
C34  24872915.814 7 129519788.63807
C37  26410764.231 4
E02  25834416.924 6 135760751.09706                                  25834419.287 5 104024500.21705
E04  25614080.958 7 134602897.75207  25614078.989 4                  25614083.359 6 103137302.51106
E09  27401451.807 6 143995592.12806                                  27401459.315 5
E11  22569456.135 6 118603293.76406                                  22569454.130 5  90877841.88305
E12  26327254.727 6 138350648.86506                                  26327255.900 5 106008950.75005
E19  28440955.463 5 149458224.45505                                  28440958.331 4
E25  25926165.895 6 136242947.81306  25926165.371 3                  25926169.836 4 104393937.35404
E36  25288756.220 6 132893286.13006  25288755.908 4                  25288759.530 5 101827360.03705
G02  21450035.162 7 112720700.42307  21450032.774 4  87834295.19904
G05  20735126.367 7 108963821.73207  20735126.557 6  84906870.57206  20735127.194 6  84906888.56706
G06  23534524.134 6 123674751.71506  23534528.473 5  96369956.55005  23534529.046 5  96369964.54905
G09  24813011.048 6 130393240.46906  24813015.476 3 101605151.47703  24813014.907 4
G11  20925428.140 7 109963879.26607  20925428.517 4  85686160.80304  20925428.793 6  85686129.82406
G12  22684235.802 6 119206482.18306  22684236.416 4  92888156.24614  22684236.498 4  92888160.81504
G13  24981806.445 4 131280277.11404
G20  20205162.155 7 106178849.15907  20205161.098 4  82736756.59004
G25  22070861.717 6 115983158.75406  22070864.579 5  90376500.53315  22070865.563 5  90376502.65505
G29  22783580.872 6                  22783580.475 4                  22783581.380 5  93294970.11205
R03  23368048.086 4                  23368061.874 5  97293048.63705
R04                                  20144919.401 6  83902879.96006
R05  20597319.739 5 110104476.90805  20597329.576 6  85636855.89306
R11  22921581.769 4                  22921593.027 6  95266923.91116
R19                                  20936554.876 6  87108365.15206
R20                                  20263221.297 6  84277287.08506
> 2022 06 16 19 44 26.0000000  0 31
C11  23004386.076 7 119789914.77307  23004387.389 6  92629158.04406
C14  22026056.445 6 114695461.82006  22026056.614 6  88689796.39206
C21  25502460.189 6 132798004.34706
C28  23096452.659 6 120269285.62006
C33  23526992.670 7 122511236.57207
C34  24873357.143 7 129522086.34607
C37  26411071.633 5
E02  25834392.656 5 135760621.81705                                  25834394.719 5 104024401.38605
E04  25613725.262 7 134601028.86807  25613723.339 4                  25613727.689 5 103135870.44905
E09  27400821.706 6 143992280.12706                                  27400828.986 5
E11  22569461.254 6 118603320.40406                                  22569459.029 5  90877862.28305
E12  26327581.285 6 138352365.60206                                  26327582.548 5 106010266.15805
E19  28441136.561 5 149459174.06705                                  28441139.078 4
E25  25926567.434 6 136245058.89806  25926567.535 4                  25926571.196 4 104395555.03504
E36  25288411.452 5 132891475.93005  25288411.624 3                  25288415.539 4 101825974.79204
G02  21450156.545 7 112721337.26307  21450153.944 4  87834791.43804
G05  20734714.294 7 108961656.08107  20734714.454 6  84905183.04906  20734714.986 6  84905201.08406
G06  23534988.768 6 123677194.32206  23534993.302 5  96371859.88105  23534993.536 5  96371867.79405
G09  24813333.782 6 130394937.65906  24813338.318 3 101606473.96103  24813337.696 4
G11  20925643.662 7 109965011.32907  20925643.947 4  85687042.92904  20925643.982 6  85687011.91406
G12  22684787.291 6                  22684787.973 4                  22684788.211 5  92890421.40805
G13  24981103.254 3
G20  20205194.290 7 106179018.12507  20205193.232 4  82736888.25404
G25  22071032.852 6                                                  22071036.868 5  90377202.62705
G29  22782969.327 5                                                  22782968.847 5  93292465.77405
R03  23368721.553 4                  23368732.722 5  97295842.73405
R04                                  20145030.306 6  83903341.84506
R05  20596675.419 5 110101035.80305  20596685.888 6  85634179.54806
R11  22921480.925 3                  22921490.882 4
R19                                  20936848.450 6  87109586.24006
R20                                  20262887.499 6  84275898.61106
> 2022 06 16 19 44 27.0000000  0 31
C11  23004684.260 7 119791467.71307  23004685.631 6  92630358.85206
C14  22025759.753 6 114693917.11606  22025759.959 6  88688601.94106
C21  25502957.494 6 132800592.01006
C28  23096015.602 6
C33  23526424.426 7 122508277.01507
C34  24873798.676 7 129524385.53407
C37  26411379.796 4
E02  25834368.057 6 135760492.82506                                  25834370.109 5 104024302.52305
E04  25613369.979 7 134599161.61207  25613368.086 4                  25613372.303 6 103134439.73906
E09  27400191.955 6 143988969.28706                                  27400198.984 5
E11  22569466.417 6 118603347.68806                                  22569464.006 5  90877883.12705
E12  26327908.196 6 138354083.42606                                  26327909.484 5 106011582.45505
E19  28441317.375 5 149460124.64405                                  28441320.000 4
E25  25926969.100 7 136247170.15907  25926969.597 4                  25926972.827 5 104397172.88505
E36  25288067.003 6 132889665.56406  25288067.220 4                  25288070.992 5 101824587.70705
G02  21450277.842 7 112721974.85207  21450275.342 4  87835288.25904
G05  20734302.332 7 108959491.71507  20734302.592 6  84903496.53306  20734302.994 6  84903514.58506
G06  23535453.731 6 123679638.02606  23535458.308 5  96373764.05805  23535459.151 5  96373772.02605
G09  24813656.592 6 130396635.82106  24813661.443 3 101607797.18703  24813661.249 4
G11  20925859.192 7 109966144.23907  20925859.509 4  85687925.71404  20925859.502 6  85687894.73706
G12  22685339.561 6 119212285.30606  22685340.293 4  92892676.18214  22685340.595 5  92892683.12505
G13  24980402.631 3
G20  20205226.674 7 106179188.21807  20205225.610 4  82737020.78804
G25  22071204.185 6                  22071207.305 5                  22071208.715 5  90377904.44205
G29  22782357.831 6                  22782357.464 4                  22782359.033 5  93289961.07105
R03  23369392.627 4                  23369403.850 5  97298637.20005
R04                                  20145141.416 6  83903805.03206
R05  20596031.179 5 110097596.62905  20596041.860 6  85631504.53706
R11                                  22921391.344 5
R19                                  20937143.085 6  87110808.39406
R20                                  20262553.765 5  84274510.43005
> 2022 06 16 19 44 28.0000000  0 31
C11  23004982.819 7 119793021.30407  23004983.811 6  92631560.18306
C14  22025463.386 7 114692373.52007  22025463.666 6  88687408.36306
C21  25503454.286 6 132803179.43906
C28  23095578.292 6
C33  23525856.256 6 122505318.69306
C34  24874240.194 7 129526685.46407
C37  26411687.654 4
E02  25834343.459 6 135760364.13906                                  25834345.557 5 104024203.70605
E04  25613014.728 7 134597295.29307  25613012.928 4                  25613017.115 6 103133009.64306
E09  27399561.996 6 143985659.47306                                  27399568.995 5
E11  22569471.706 6 118603374.98406                                  22569469.260 5  90877904.15805
E12  26328235.152 6 138355801.49206                                  26328236.250 5 106012898.89505
E19  28441498.240 5 149461075.42305                                  28441501.168 4
E25  25927371.102 6 136249282.48206  25927371.471 4                  25927374.854 5 104398791.29305
E36  25287722.928 6 132887855.81706  25287722.690 4                  25287726.451 5 101823201.01205
G02  21450399.087 7 112722612.76407  21450396.700 4  87835785.33404
G05  20733890.668 7 108957328.38307  20733890.926 6  84901810.82606  20733891.003 6  84901828.81306
G06  23535918.742 6 123682081.81106  23535923.325 5  96375668.29405  23535923.573 5  96375676.40305
G09  24813979.813 6 130398334.09906  24813984.615 3 101609120.50203  24813984.655 4
G11  20926074.819 7 109967277.46907  20926075.138 4  85688808.75004  20926075.330 6  85688777.76006
G12  22685892.436 6 119215188.51506  22685892.754 4  92894938.41104  22685893.359 5  92894945.45305
G13  24979702.764 3
G20  20205259.126 7 106179359.09807  20205258.129 4  82737153.94204
G25  22071375.618 7                  22071378.647 5                  22071379.868 6  90378606.61306
G29  22781746.111 6 119718883.48906  22781745.839 4  93287440.27614  22781747.644 5  93287456.26305
R03  23370062.047 4                  23370074.674 5  97301431.57505
R04                                  20145252.799 6  83904268.92906
R05  20595388.243 5 110094158.80805  20595398.073 6  85628830.73606
R11  22921275.342 3                  22921290.509 4
R19                                  20937437.077 6  87112030.87706
R20                                  20262219.886 6  84273122.10706
> 2022 06 16 19 44 29.0000000  0 31
C11  23005281.094 7 119794574.50207  23005282.250 6  92632761.23906
C14  22025167.149 7 114690830.40707  22025167.473 6  88686215.06706
C21  25503950.706 6 132805765.70206
C28  23095141.055 6
C33  23525288.248 7 122502361.24907
C34  24874681.876 7 129528985.12207
C37  26411994.979 5
E02  25834318.859 6 135760235.50406                                  25834321.230 5 104024105.23705
E04  25612659.541 7 134595428.85407  25612657.832 4                  25612662.220 6 103131579.56506
E09  27398932.212 6 143982350.45806                                  27398939.167 4
E11  22569476.801 6 118603401.61006                                  22569474.564 5  90877924.49405
E12  26328561.799 6 138357518.53606                                  26328563.150 5 106014214.52405
E19  28441678.497 5 149462025.04205                                  28441682.134 4
E25  25927773.272 6 136251395.88206  25927774.292 4                  25927777.352 5 104400410.81205
E36  25287378.707 6 132886045.95406  25287377.942 4                  25287381.804 5 101821814.14305
G02  21450520.070 7 112723249.77807  21450517.889 4  87836281.70104
G05  20733479.013 7 108955165.87907  20733479.418 6  84900125.75606  20733479.397 6  84900143.75106
G06  23536383.996 6 123684524.48706  23536388.147 5  96377571.68305  23536389.102 5  96377579.70705
G09  24814302.902 6 130400031.21606  24814307.513 3 101610442.93403  24814308.315 4
G11  20926290.270 7 109968409.85607  20926290.630 4  85689691.12904  20926290.834 6  85689660.15506
G12  22686445.352 5                                                  22686445.370 4  92897208.55404
G13  24979003.040 3
G20  20205291.617 7 106179529.87707  20205290.642 4  82737287.01604
G25  22071547.368 6 115986763.52306  22071550.360 5  90379309.63215  22071551.350 5  90379309.67005
G29  22781134.298 7 119715668.24307  22781134.044 4  93284934.90004  22781136.407 6  93284950.89606
R03  23370733.609 4                  23370744.063 5
R04                                  20145363.915 6  83904732.77406
R05  20594745.535 5 110090721.98305  20594754.977 6  85626157.59806
R11  22921176.961 4                  22921190.559 6
R19                                  20937730.904 6  87113252.84006
R20                                  20261885.477 5  84271733.23905
> 2022 06 16 19 44 30.0000000  0 31
C11  23005579.481 7 119796127.96607  23005580.472 6  92633962.48406
C14  22024871.025 7 114689288.18807  22024871.348 6  88685022.52506
C21  25504447.012 6 132808351.46306
C28  23094703.616 6
C33  23524720.426 7 122499405.05507
C34  24875123.376 6 129531284.99306
C37  26412302.175 4
E02  25834294.719 6 135760108.17306                                  25834297.229 5 104024007.74705
E04  25612304.444 7 134593562.96407  25612302.432 4                  25612307.254 5 103130149.84805
E09  27398302.213 5 143979042.39905                                  27398309.831 4
E11  22569481.901 6 118603428.19506                                  22569479.813 5  90877944.89505
E12  26328888.484 6 138359235.19906                                  26328889.746 5 106015529.92005
E19  28441858.953 5 149462974.44905                                  28441862.774 4
E25  25928175.702 6 136253510.50806  25928177.114 3                  25928179.646 4 104402030.93604
E36  25287034.250 6 132884236.55906  25287034.159 4                  25287037.487 5 101820427.85305
G02  21450641.293 7 112723886.84707  21450639.145 4  87836778.11804
G05  20733067.785 7 108953004.74107  20733068.169 6  84898441.74906  20733068.608 6  84898459.79006
G06  23536848.391 6 123686966.83406  23536852.917 5  96379474.81505  23536854.469 5  96379482.81605
G09  24814625.704 6 130401728.09006  24814630.371 3 101611765.16803  24814631.354 5
G11  20926505.675 7 109969542.25407  20926506.126 4  85690573.50804  20926506.483 6  85690542.48006
G12  22686998.739 5                                                  22686999.547 5  92899473.01705
G13  24978303.929 3
G20  20205324.343 7 106179701.33307  20205323.288 4  82737420.61704
G25  22071719.566 6 115987667.14206  22071722.319 5  90380013.77705  22071723.773 5  90380013.75805
G29  22780522.861 6                  22780522.425 4                  22780524.524 5  93282446.37905
R03  23371402.653 4                  23371414.938 5
R04                                  20145475.640 6  83905197.07506
R05  20594103.715 5 110087286.44805  20594112.962 6  85623485.54906
R11  22921076.524 4                  22921088.811 6
R19                                  20938023.836 6  87114474.76306
R20                                  20261552.120 5  84270344.66305
> 2022 06 16 19 44 31.0000000  0 31
C11  23005877.815 7 119797681.05007  23005878.778 6  92635163.40006
C14  22024575.328 7 114687746.14307  22024575.178 6  88683830.16206
C21  25504943.525 6 132810936.26406
C28  23094266.450 6
C33  23524152.804 7 122496449.51507
C34  24875565.248 6 129533584.84106
C37  26412610.825 4
E02  25834270.473 6 135759980.72606                                  25834272.788 5 104023910.02305
E04  25611949.181 6 134591696.95006  25611947.667 4                  25611951.988 5 103128720.13005
E09  27397673.125 5 143975734.83705                                  27397680.096 4
E11  22569486.796 6 118603454.00906                                  22569484.576 5  90877964.63905
E12  26329215.193 6 138360951.10006                                  26329216.318 5 106016844.70905
E19  28442039.713 5 149463923.10605                                  28442043.209 4
E25  25928578.413 7 136255625.93707  25928579.855 4                  25928582.492 5 104403651.88705
E36  25286690.269 6 132882426.80006  25286689.611 4                  25286692.977 5 101819041.04305
G02  21450762.526 7 112724523.09507  21450760.251 4  87837273.89804
G05  20732656.765 7 108950844.03807  20732657.021 6  84896758.08406  20732657.901 6  84896776.11506
G06  23537312.965 6 123689408.33906  23537317.530 5  96381377.28905  23537319.536 5  96381385.28705
G09  24814948.719 6 130403424.39706  24814953.151 3 101613086.99303  24814954.138 4
G11  20926720.997 7 109970673.85707  20926721.486 4  85691455.28104  20926722.090 6  85691424.30806
G12  22687551.697 6 119223909.82806  22687552.658 4  92901736.02214  22687552.748 5  92901738.13705
G13  24977606.267 3
G20  20205356.795 7 106179872.53007  20205355.847 4  82737554.01704
G25  22071891.498 6 115988571.14806  22071894.358 5  90380718.20305  22071895.472 5  90380718.27705
G29  22779911.376 6 119709238.97206  22779910.812 4  93279926.09314  22779911.956 5  93279941.18005
R03  23372074.103 4                  23372085.242 5  97309810.50905
R04                                  20145586.953 6  83905661.33106
R05  20593460.282 5 110083851.45205  20593470.607 6  85620813.89906
R11  22920977.008 5                  22920988.661 6  95264411.30616
R19                                  20938317.668 6  87115696.20306
R20                                  20261217.815 6  84268955.29606
> 2022 06 16 19 44 32.0000000  0 29
C11  23006176.317 6 119799234.67506  23006176.823 5  92636364.74605
C14  22024279.608 7 114686205.53607  22024279.301 6  88682638.83106
C21  25505439.941 6 132813520.46106
C28  23093829.294 6
C33  23523585.691 7 122493495.62007
C37  26412919.751 4
E02  25834246.278 5 135759854.08505                                  25834248.583 5 104023812.92105
E04  25611594.495 5 134589831.93205  25611592.638 3                  25611598.358 4
E09  27397044.227 6 143972428.86306                                  27397050.653 4
E11  22569491.606 6 118603479.78206                                  22569489.603 5  90877984.43205
E12  26329541.543 4 138362665.97304
E19  28442220.555 5 149464871.37005                                  28442223.460 4
E25  25928981.188 7 136257742.64107  25928982.368 4                  25928985.377 5 104405273.76705
E36  25286345.858 5 132880617.14505  25286345.064 3                  25286348.690 4 101817654.46704
G02  21450883.661 7 112725159.39107  21450881.328 4  87837769.71004
G05  20732245.982 7 108948684.91907  20732246.167 6  84895075.65606  20732247.127 6  84895093.67206
G09  24815271.672 6 130405120.06506  24815275.789 3 101614408.29003  24815276.681 5
G11  20926936.379 7 109971805.50707  20926936.850 4  85692337.08604  20926937.302 6  85692306.11206
G12  22688105.138 6 119226818.33806  22688106.209 4  92904002.41704  22688106.520 5  92904004.55905
G13  24976907.960 3
G20  20205389.575 7 106180044.50907  20205388.582 4  82737688.02504
G25  22072063.888 6 115989476.34106  22072066.978 5  90381424.49915  22072067.046 6  90381423.51106
G29  22779299.355 6 119706023.24806  22779298.971 4  93277420.34804  22779300.090 5  93277435.52205
R03  23372746.349 4                  23372756.366 5  97312602.35505
R04                                  20145698.430 6  83906126.17006
R05  20592818.938 5 110080418.41505  20592828.564 6  85618143.73406
R11  22920876.527 4                  22920886.986 5  95263992.80505
R19                                  20938611.466 5  87116917.99805
R20                                  20260883.832 6  84267565.79906
> 2022 06 16 19 44 33.0000000  0 31
C11  23006474.613 6 119800788.41706  23006474.959 6  92637566.15506
C14  22023983.875 7 114684665.52907  22023983.348 6  88681448.03006
C21  25505936.455 5
C28  23093391.656 6
C33  23523018.517 7 122490542.72607
C34  24876452.196 4
C37  26413226.737 4
E02  25834221.894 6 135759725.58306                                  25834224.519 5 104023714.50905
E04  25611239.687 6 134587967.27106  25611237.958 4                  25611242.999 5
E09  27396415.328 6 143969123.80206                                  27396421.773 4
E11  22569496.391 6 118603504.53706                                  22569494.310 5  90878003.32905
E12  26329868.658 4 138364377.32504
E19  28442397.771 3 149465811.33703
E25  25929384.258 7 136259859.75107  25929386.245 4                  25929387.978 5 104406896.10205
E36  25286001.107 7 132878806.17507  25286000.838 4                  25286004.142 5 101816266.77905
G02  21451004.607 7 112725794.72207  21451002.199 4  87838264.77604
G05  20731835.167 7 108946526.40407  20731835.410 6  84893393.69606  20731836.381 6  84893411.68206
G06  23538242.947 4
G09  24815594.114 6 130406814.30606  24815598.139 3 101615728.46603  24815598.843 4
G11  20927151.580 7 109972936.35307  20927152.037 4  85693218.26604  20927152.205 6  85693187.25406
G12  22688658.739 6 119229727.68006  22688659.762 4  92906269.45804  22688660.534 5  92906271.42605
G13  24976206.184 3
G20  20205422.273 7 106180216.38207  20205421.318 4  82737821.95104
G25  22072236.109 7 115990381.39707  22072239.208 5  90382129.75505  22072239.472 6  90382128.70006
G29  22778687.245 6                  22778686.830 3                  22778688.428 4  93274928.99304
R03  23373416.515 3                  23373426.320 5  97315392.57605
R04                                  20145809.805 7  83906591.03307
R05  20592176.938 5 110076986.50805  20592186.579 6  85615474.45406
R11  22920776.268 4                  22920785.235 5  95263573.33205
R19                                  20938906.272 5  87118139.05105
R20                                  20260549.310 6  84266175.19606
> 2022 06 16 19 44 34.0000000  0 31
C11  23006773.470 7 119802343.70907  23006773.635 6  92638768.90606
C14  22023688.676 7 114683127.59407  22023687.966 6  88680258.80206
C21  25506431.305 5
C28  23092954.144 6
C33  23522451.817 7 122487592.10207
C34  24876893.796 6
C37  26413536.017 4
E02  25834197.382 6 135759597.60206                                  25834200.009 5 104023616.42005
E04  25610885.202 6 134586104.56206  25610882.982 4                  25610888.124 5 103124433.97615
E09  27395787.083 6 143965821.33206                                  27395793.407 5
E11  22569501.179 6 118603529.55806                                  22569499.259 5  90878022.51605
E12  26330195.509 5 138366093.12305                                  26330197.907 4
E19  28442579.127 4
E25  25929787.729 5 136261978.28705  25929789.036 3                  25929791.179 4 104408519.24504
E36  25285656.550 6 132876995.11306  25285656.582 4                  25285659.909 5 101814879.11405
G02  21451125.779 7 112726430.66207  21451123.187 4  87838760.32704
G05  20731424.831 7 108944369.59907  20731424.958 6  84891713.07206  20731425.997 6  84891731.06006
G06  23538707.746 6                                                  23538712.395 5
G09  24815917.441 3                                                  24815919.123 3
G11  20927367.016 7 109974067.75007  20927367.325 4  85694099.86804  20927367.494 6  85694068.86006
G12  22689212.215 5                                                  22689214.734 5  92908539.77205
G13  24975506.889 3
G20  20205455.252 7 106180389.37307  20205454.217 4  82737956.74504
G25  22072408.735 6 115991287.22906  22072411.580 5  90382835.60905  22072411.856 5  90382834.64505
G29  22778074.948 6 119699587.87006  22778074.517 4  93272407.48414  22778076.378 5  93272421.46405
R03  23374086.467 3                  23374097.221 4
R04                                  20145921.820 6  83907056.92206
R05  20591534.905 5 110073557.20905  20591544.931 6  85612807.25406
R11  22920676.614 3                  22920684.548 4
R19                                  20939199.406 6  87119361.18906
R20                                  20260214.728 5  84264784.38805
> 2022 06 16 19 44 35.0000000  0 31
C11  23007072.548 7 119803900.74107  23007072.528 6  92639972.84606
C14  22023393.766 6 114681592.40106  22023393.230 6  88679071.72206
C21  25506927.385 5
C28  23092516.179 6
C33  23521885.880 6 122484645.47006
C34  24877334.885 6
C37  26413842.211 4
E02  25834172.738 6 135759468.31106                                  25834175.427 5 104023517.41505
E04  25610531.163 7 134584244.41207  25610529.255 4                  25610533.743 5 103123008.65505
E09  27395159.421 6 143962523.40106                                  27395165.730 5
E11  22569505.831 6 118603553.78106                                  22569503.469 5  90878041.12905
E12  26330521.991 6 138367809.44806                                  26330523.834 5
E19  28442760.545 5                                                  28442765.130 4
E25  25930191.375 6 136264098.88706  25930191.759 4
E36  25285311.629 6 132875182.70206  25285311.475 4                  25285314.694 5 101813490.44405
G02  21451246.746 7 112727066.04407  21451244.085 4  87839255.41804
G05  20731014.911 7 108942215.51607  20731015.040 6  84890034.56606  20731015.790 6  84890052.60206
G06  23539171.656 6                  23539176.847 5                  23539176.670 5
G09  24816239.362 5                                                  24816240.414 3
G11  20927581.850 7 109975198.67207  20927582.516 4  85694981.10904  20927582.895 6  85694950.10606
G12  22689767.022 6 119235553.33406  22689767.717 4  92910805.91114  22689769.048 5  92910810.98705
G13  24974807.536 3
G20  20205488.346 7 106180563.18507  20205487.312 4  82738092.18004
G25  22072581.105 6 115992193.91306  22072584.131 5  90383542.12405  22072584.610 5  90383541.12805
G29  22777462.234 6 119696367.94006  22777461.801 4  93269898.45304  22777464.840 5  93269912.39405
R03                                  23374768.626 4  97320970.35004
R04                                  20146033.891 6  83907523.30006
R05  20590892.842 5 110070132.02205  20590903.750 6  85610143.30106
R11  22920575.394 3                  22920584.639 5
R19                                  20939492.659 6  87120583.63506
R20                                  20259879.686 5  84263391.92005
> 2022 06 16 19 44 36.0000000  0 30
C11  23007371.565 7 119805458.34907  23007372.030 6  92641177.27206
C14  22023099.406 7 114680059.65207  22023098.937 6  88677886.43906
C21  25507422.127 6
C28  23092077.654 6
C33  23521321.080 7 122481703.17007
C34  24877777.303 7
E02  25834147.854 6 135759337.84306                                  25834150.655 5 104023417.41405
E04  25610177.423 7 134582385.82107  25610175.612 4                  25610180.058 6 103121584.56806
E09  27394532.772 6 143959230.56306                                  27394539.479 5
E11  22569510.064 6 118603576.00206                                  22569507.774 5  90878058.13305
E12  26330848.296 6 138369524.57806                                  26330849.672 5
E19  28442940.841 5                                                  28442944.022 4
E25  25930595.456 6 136266222.91206  25930595.104 3                  25930598.835 5 104411771.64505
E36  25284966.307 6 132873368.69606  25284966.302 4                  25284969.524 4 101812100.65104
G02  21451367.139 7 112727699.57507  21451364.617 4  87839749.07604
G05  20730605.580 7 108940064.17207  20730605.661 6  84888358.19406  20730606.834 6  84888376.21106
G06  23539635.729 7 123701623.99317  23539641.107 5  96390894.59515  23539640.797 5  96390893.59815
G09  24816561.252 5                                                  24816560.926 4
G11  20927796.812 7 109976327.65707  20927797.322 4  85695860.83604  20927797.657 6  85695829.84406
G12  22690322.305 7 119238472.23907  22690323.163 4  92913080.40904  22690324.212 5  92913085.44305
G13  24974106.672 3
G20  20205521.619 7 106180736.91907  20205520.380 4  82738227.55804
G25  22072753.693 5
G29  22776849.110 6 119693144.91406  22776848.525 4  93267387.01704  22776851.640 5  93267400.92405
R03                                  23375437.651 5  97323754.35105
R04                                  20146146.071 6  83907988.95506
R05  20590252.529 5 110066710.98405  20590263.624 6  85607482.39506
R11  22920469.072 4                  22920482.753 5
R19                                  20939786.583 6  87121805.20906
R20                                  20259544.782 6  84261996.99406
> 2022 06 16 19 44 37.0000000  0 29
C11  23007670.738 7 119807017.26207  23007671.519 6  92642382.73706
C14  22022805.411 6 114678529.14506  22022805.229 6  88676703.04006
C21  25507916.506 6
C28  23091639.017 6
C33  23520756.562 6 122478764.30906
C34  24878220.417 7
E02  25834122.638 6 135759206.42706                                  25834125.776 5 104023316.71705
E04  25609824.219 7 134580529.24107  25609822.434 4                  25609826.656 6 103120161.96206
E09  27393906.935 6 143955941.64706                                  27393913.787 5
E11  22569514.079 6 118603597.55706                                  22569511.615 5  90878074.63405
E12  26331174.284 6 138371239.79006                                  26331175.282 4
E19  28443119.866 5                                                  28443122.064 4
E25  25930999.945 7 136268349.08807  25930999.012 4                  25931003.390 5 104413400.77605
E36  25284620.803 5 132871554.14505  25284621.088 3
G02  21451487.483 7 112728332.78007  21451485.105 4  87840242.48604
G05  20730196.520 7 108937915.24207  20730196.730 6  84886683.69906  20730197.403 6  84886701.70506
G06  23540099.738 6 123704063.37506  23540105.183 5  96392795.40805  23540105.368 5  96392794.40305
G09  24816881.734 6                  24816885.700 3                  24816883.505 4
G11  20928011.425 7 109977456.22807  20928012.107 4  85696740.24404  20928012.252 6  85696709.24606
G12  22690878.358 7 119241394.35207  22690879.224 4  92915357.37704  22690880.328 6  92915362.44106
G20  20205554.814 7 106180911.36807  20205553.577 4  82738363.48804
G25  22072926.843 6                  22072929.985 4                  22072930.127 5  90384957.30305
G29  22776235.053 6 119689920.08206  22776234.965 4  93264874.18304  22776238.540 5  93264888.18505
R03                                  23376106.387 5  97326536.39105
R04                                  20146257.856 6  83908454.96206
R05  20589614.421 5 110063293.27105  20589624.361 6  85604824.26706
R11  22920368.371 4                  22920379.557 5
R19                                  20940080.312 6  87123026.99606
R20                                  20259208.929 6  84260600.92106
> 2022 06 16 19 44 38.0000000  0 30
C11  23007970.475 7 119808577.87007  23007971.196 6  92643589.50806
C14  22022511.850 6 114677000.26306  22022511.704 6  88675520.83206
C21  25508411.444 6
C28  23091201.044 5
C33  23520192.274 7 122475826.60407
C34  24878664.087 7
C37  26414765.430 3
E02  25834097.626 5 135759074.78905                                  25834100.496 4 104023215.87504
E04  25609471.348 7 134578674.67407  25609469.865 5                  25609473.385 6 103118740.97706
E09  27393281.539 6 143952654.24506                                  27393288.427 5
E11  22569518.277 6 118603619.49106                                  22569515.617 5  90878091.38505
E12  26331500.996 6 138372956.54406                                  26331501.595 4
E19  28443298.919 5                                                  28443301.049 4
E25  25931404.159 7 136270475.44007  25931404.262 5                  25931407.936 6 104415030.07606
E36  25284275.258 5 132869738.60105  25284275.610 3                  25284278.947 4 101809320.02704
G02  21451608.037 7 112728966.64307  21451605.782 4  87840736.40404
G05  20729787.789 7 108935767.14407  20729787.976 6  84885009.85606  20729788.776 6  84885027.91206
G06  23540563.829 6 123706504.28806  23540569.571 5  96394697.40905  23540569.705 5  96394696.40205
G09  24817202.365 6                  24817206.741 3                  24817206.347 5
G11  20928226.312 7 109978585.68407  20928227.050 4  85697620.34204  20928227.072 6  85697589.32806
G12  22691434.255 7 119244317.11407  22691435.398 5  92917634.85205  22691436.383 5  92917639.93805
G20  20205588.300 7 106181086.81307  20205586.990 4  82738500.19304
G25  22073099.740 6 115994918.42306  22073102.920 4  90385666.10114  22073102.232 5  90385665.13105
G29  22775621.274 5 119686694.56105  22775621.293 4  93262360.81104  22775624.157 5  93262375.10705
R03  23376748.151 4                  23376774.906 6  97329319.00106
R04                                  20146369.686 6  83908922.42406
R05  20588975.674 5 110059877.60805  20588985.312 6  85602167.60706
R11  22920265.113 4                  22920275.569 5
R19                                  20940374.658 6  87124250.04606
R20                                  20258873.149 6  84259204.64506
> 2022 06 16 19 44 39.0000000  0 30
C11  23008270.392 7 119810138.92807  23008270.905 6  92644796.61606
C14  22022217.951 6 114675471.36706  22022218.056 6  88674338.56506
C21  25508906.181 6
C28  23090762.463 5
C33  23519628.191 7 122472888.18007
C34  24879107.937 6 129552060.78916
C37  26415073.276 4
E02  25834072.359 5 135758940.24105                                  25834074.822 5 104023112.61205
E04  25609118.564 7 134576820.79707  25609117.473 5                  25609120.437 6 103117320.47706
E09  27392656.051 6 143949366.29906                                  27392662.762 5
E11  22569522.357 6 118603640.25606                                  22569519.700 5  90878107.35405
E12  26331827.559 6 138374673.82206                                  26331828.377 4
E19  28443478.382 5                                                  28443480.429 4
E25  25931808.249 6 136272599.27706  25931808.969 5                  25931812.081 5 104416657.49805
E36  25283929.325 5 132867920.01905  25283929.459 3                  25283933.058 4 101807926.49204
G02  21451728.503 7 112729599.88207  21451726.268 4  87841229.83504
G05  20729378.762 7 108933617.74207  20729378.978 6  84883335.01206  20729379.599 6  84883353.06306
G06  23541028.327 6 123708945.70606  23541034.060 5  96396599.80005  23541033.721 5  96396598.88705
G09  24817522.731 6                  24817527.807 3                  24817528.040 5
G11  20928441.079 7 109979714.73307  20928441.876 4  85698500.11904  20928441.353 6  85698469.14306
G12  22691990.215 7 119247238.02407  22691991.240 5  92919910.89805  22691992.443 5  92919915.90105
G20  20205621.545 7 106181261.64307  20205620.294 4  82738636.42304
G25  22073271.989 7 115995824.25007  22073275.299 4  90386371.93904  22073274.740 6  90386370.88206
G29  22775006.831 5                                                  22775010.597 4  93259859.31304
R03  23377419.152 4                  23377441.918 6  97332101.31806
R04                                  20146482.768 6  83909390.35006
R05  20588337.280 5 110056461.97905  20588346.411 6  85599511.04806
R11  22920163.605 3                  22920172.959 5
R19                                  20940668.816 6  87125473.41206
R20                                  20258537.133 5  84257806.82005
> 2022 06 16 19 44 40.0000000  0 30
C11  23008570.277 7 119811700.59307  23008571.111 6  92646004.23906
C14  22021924.295 7 114673942.69107  22021924.203 6  88673156.47606
C21  25509400.586 6
C28  23090322.375 6
C33  23519063.948 7 122469949.81707
C34  24879551.857 6 129554373.57406
C37  26415380.941 4
E02  25834045.954 5 135758801.67205                                  25834048.587 5 104023006.67505
E04  25608765.883 7 134574968.00407  25608765.091 5                  25608767.858 6 103115900.81406
E09  27392030.435 6 143946078.93606                                  27392037.044 5
E11  22569526.050 6 118603659.18406                                  22569523.488 5  90878121.83705
E12  26332154.055 5 138376391.44205                                  26332155.476 5
E19  28443657.318 5 149472428.34815                                  28443659.428 4
E25  25932211.706 6 136274720.81506  25932212.940 4                  25932215.975 5 104418283.15305
E36  25283582.528 6 132866097.49506  25283582.537 4                  25283586.073 5 101806530.02605
G02  21451848.928 7 112730231.86307  21451846.434 4  87841722.28404
G05  20728969.483 7 108931467.33807  20728969.770 6  84881659.39506  20728970.343 6  84881677.40406
G06  23541493.192 6 123711387.32706  23541498.595 5  96398502.36705  23541498.492 5  96398501.41305
G09  24817843.047 6                  24817848.579 3                  24817849.572 5
G11  20928655.837 7 109980842.77207  20928656.509 4  85699379.11804  20928656.357 6  85699348.15606
G12  22692545.738 7 119250157.64607  22692546.835 5  92922185.92805  22692548.663 5  92922190.96105
G20  20205654.585 7 106181435.58807  20205653.406 4  82738771.97604
G25  22073443.565 7 115996727.11207  22073447.095 5  90387075.45305  22073446.938 6  90387074.44706
G29  22774391.996 6 119680235.68906  22774391.492 4  93257326.38214  22774394.658 5  93257340.33505
R03                                  23378109.116 5  97334882.09205
R04                                  20146595.368 6  83909858.38906
R05  20587698.446 5 110053047.23005  20587707.903 6  85596855.14806
R11  22920059.796 3                  22920067.898 5
R19                                  20940962.919 6  87126696.92406
R20                                  20258201.171 5  84256406.46705
> 2022 06 16 19 44 41.0000000  0 30
C11  23008870.381 7 119813263.17407  23008871.117 6  92647212.49306
C14  22021630.956 7 114672415.22407  22021630.731 6  88671975.35606
C21  25509894.607 6
C28  23089881.799 7
C33  23518500.010 7 122467012.93807
C34  24879996.256 6 129556688.04306
C37  26415685.517 4
E02  25834019.084 7 135758660.53107                                  25834021.494 5 104022898.44305
E04  25608413.590 7 134573116.71807  25608412.419 5                  25608415.387 5 103114482.35605
E09  27391405.084 6 143942793.51706                                  27391411.517 5
E11  22569529.252 6 118603676.77406                                  22569527.168 5  90878135.37205
E12  26332480.872 5 138378109.40405                                  26332482.262 4
E19  28443836.013 5 149473369.16415                                  28443838.664 4
E25  25932615.310 6 136276842.01506  25932616.446 4                  25932619.723 5 104419908.42405
E36  25283235.257 7 132864272.22207  25283234.712 5                  25283238.740 6 101805131.37006
G02  21451969.130 7 112730863.03607  21451966.537 4  87842214.10904
G05  20728560.432 7 108929317.34407  20728560.639 6  84879984.09106  20728560.922 6  84880002.10806
G06  23541957.758 6 123713829.15606  23541963.174 5  96400405.10005  23541962.673 5  96400404.07505
G09  24818163.309 6                  24818169.132 4                  24818169.584 5 101626258.35115
G11  20928870.623 7 109981970.16007  20928871.013 4  85700257.61604  20928870.893 6  85700226.64306
G12  22693101.614 6 119253077.89006  22693102.590 5  92924461.45805  22693103.923 5  92924466.50905
G20  20205687.707 7 106181609.36707  20205686.496 4  82738907.40504
G25  22073614.878 7 115997628.54207  22073618.613 5  90387777.89005  22073619.078 6  90387776.93006
G29  22773776.236 6 119676999.95506  22773775.786 4  93254805.05114  22773778.625 5  93254819.13005
R03                                  23378776.251 5  97337661.36105
R04                                  20146707.315 6  83910326.65506
R05  20587059.585 6 110049634.35406  20587069.400 7  85594200.67307
R11  22919958.004 4                  22919964.550 6  95260155.60416
R19                                  20941255.909 6  87127920.67506
R20                                  20257864.176 5  84255003.96305
> 2022 06 16 19 44 42.0000000  0 30
C11  23009170.633 7 119814827.44107  23009171.369 6  92648422.10906
C14  22021338.069 7 114670889.79107  22021337.540 6  88670795.80706
C21  25510388.457 7
C28  23089440.817 7
C33  23517936.286 7 122464078.35707
C34  24880441.004 6 129559004.63006
C37  26415991.854 4
E02  25833992.129 7 135758518.31907                                  25833994.167 6 104022789.54906
E04  25608061.669 7 134571267.60407  25608060.122 4                  25608063.274 5 103113065.46805
E09  27390780.273 6 143939510.92406                                  27390786.984 5
E11  22569532.440 6 118603694.04706                                  22569530.705 5  90878148.59705
E12  26332807.958 6 138379828.22006                                  26332809.509 4
E19  28444014.748 5 149474309.72015                                  28444017.475 4
E25  25933019.142 6 136278964.02006  25933019.683 4                  25933023.300 5 104421534.49705
E36  25282887.638 6 132862445.64206  25282886.725 5                  25282891.317 6 101803731.91606
G02  21452089.255 7 112731494.18607  21452086.654 4  87842705.92104
G05  20728151.426 7 108927168.77407  20728151.772 6  84878309.89906  20728151.991 6  84878327.96006
G06  23542422.373 6 123716271.60106  23542427.879 5  96402308.31305  23542428.192 5  96402307.36305
G09  24818484.228 6 130422021.98516  24818489.448 4 101627566.61814  24818489.568 5 101627570.70005
G11  20929085.265 7 109983097.61507  20929085.548 4  85701136.15504  20929085.703 6  85701105.17606
G12  22693657.714 6 119255999.78806  22693658.650 5  92926738.28605  22693660.027 6  92926743.34106
G20  20205720.712 7 106181783.87907  20205719.684 4  82739043.40504
G25  22073786.342 7 115998530.00907  22073790.104 5  90388480.36905  22073790.184 5  90388479.39505
G29  22773160.368 7 119673762.38407  22773159.748 4  93252282.28114  22773161.416 5  93252296.20305
R03  23379431.847 4                  23379442.397 5  97340439.64405
R04                                  20146819.351 6  83910795.78906
R05  20586422.088 5 110046224.35805  20586431.541 7  85591548.40007
R11  22919851.781 3                  22919861.537 5  95259721.88505
R19                                  20941550.593 6  87129145.15506
R20                                  20257527.284 5  84253600.57205
> 2022 06 16 19 44 43.0000000  0 30
C11  23009471.541 7 119816393.84907  23009471.953 6  92649633.37406
C14  22021045.656 7 114669366.98407  22021045.252 6  88669618.28806
C21  25510882.481 6
C28  23088999.747 6
C33  23517373.201 7 122461146.74107
C34  24880886.188 6 129561323.77906
C37  26416296.353 4
E02  25833965.096 6 135758376.29606                                  25833966.950 5 104022680.79605
E04  25607710.242 7 134569421.17007  25607708.931 4                  25607711.909 5 103111650.63905
E09  27390155.765 5 143936231.54905                                  27390162.749 4
E11  22569535.854 6 118603711.97206                                  22569534.067 5  90878162.31605
E12  26333135.580 6 138381548.59606                                  26333137.086 5
E19  28444194.045 5 149475250.90815                                  28444196.939 4
E25  25933423.349 6 136281087.89906  25933423.633 4                  25933427.479 5 104423161.84805
E36  25282539.952 7 132860619.08707  25282539.404 4                  25282543.457 5 101802332.33705
G02  21452209.394 7 112732126.31707  21452206.941 4  87843198.50404
G05  20727743.073 7 108925022.60507  20727743.365 6  84876637.59206  20727743.719 6  84876655.64706
G06  23542887.730 6 123718715.52306  23542892.888 5  96404212.68505  23542893.197 5  96404211.67305
G09  24818804.597 6 130423706.55306  24818809.925 4 101628879.31204  24818809.930 5 101628883.40105
G11  20929300.120 7 109984226.13807  20929300.292 4  85702015.53604  20929300.739 6  85701984.54006
G12  22694214.138 7 119258924.37407  22694215.208 5  92929017.18905  22694216.302 6  92929022.13706
G20  20205754.199 7 106181960.05307  20205753.196 4  82739180.69204
G25  22073957.970 6 115999432.65106  22073961.812 5  90389183.72805  22073962.105 5  90389182.75505
G29  22772544.043 7 119670524.42907  22772543.680 4  93249759.17604  22772545.579 5  93249773.15905
R03  23380097.535 4                  23380109.118 6  97343217.85206
R04                                  20146932.391 6  83911266.39806
R05  20585783.950 5 110042817.57605  20585794.517 6  85588898.76906
R11  22919748.099 4                  22919756.183 5  95259287.36105
R19                                  20941844.663 6  87130370.96906
R20                                  20257189.230 5  84252197.09805
> 2022 06 16 19 44 44.0000000  0 30
C11  23009772.804 7 119817962.72707  23009773.180 6  92650846.54006
C14  22020753.874 7 114667847.34107  22020753.288 6  88668443.27006
C21  25511376.320 6
C28  23088558.844 7
C33  23516810.914 7 122458218.86807
C34  24881331.965 6 129563645.80306
C37  26416601.295 4
E02  25833938.336 6 135758235.41806                                  25833940.071 5 104022572.84705
E04  25607359.289 7 134567577.60307  25607357.864 4                  25607361.202 5 103110238.09705
E09  27389532.617 4 143932956.47204                                  27389539.651 4
E11  22569539.667 6 118603731.00506                                  22569537.644 5  90878176.93005
E12  26333463.150 6 138383270.51606                                  26333464.516 4
E19  28444372.852 5 149476192.91015                                  28444376.036 4
E25  25933827.968 6 136283214.85306  25933828.869 5                  25933832.340 6 104424791.52706
E36  25282192.241 7 132858793.45407  25282192.058 4                  25282195.937 5 101800933.47205
G02  21452329.909 7 112732759.74207  21452327.457 4  87843692.10404
G05  20727334.959 6 108922879.56706  20727335.552 6  84874967.70306  20727335.632 6  84874985.69506
G06  23543353.029 6 123721160.80806  23543358.146 5  96406118.10105  23543358.599 5  96406117.11505
G09  24819124.882 6 130425391.70306  24819130.544 4 101630192.42404  24819130.436 5 101630196.39605
G11  20929515.255 7 109985355.95307  20929515.279 4  85702895.91404  20929515.882 7  85702864.90407
G12  22694771.203 7 119261852.34607  22694772.414 5  92931298.71505  22694773.138 5  92931303.62605
G20  20205788.095 7 106182138.33107  20205787.090 4  82739319.61604
G25  22074130.138 7 116000337.46807  22074133.968 5  90389888.78905  22074134.332 5  90389887.78905
G29  22771927.911 7 119667286.72807  22771927.678 5  93247236.29105  22771928.858 6  93247250.34006
R03  23380766.660 4                  23380777.098 6  97345996.18406
R04                                  20147045.529 6  83911738.75606
R05  20585147.718 5 110039414.89005  20585158.096 6  85586252.26906
R11  22919644.568 4                  22919651.837 5  95258853.35305
R19                                  20942139.774 6  87131598.22506
R20                                  20256851.335 5  84250794.11605
> 2022 06 16 19 44 45.0000000  0 31
C11  23010074.140 7 119819531.93407  23010074.479 6  92652060.00706
C14  22020462.536 7 114666329.34807  22020461.854 6  88667269.40406
C21  25511870.120 6 132847002.04806
C28  23088117.889 7
C33  23516249.167 7 122455293.82607
C34  24881778.025 6 129565968.64306
C37  26416909.273 4
E02  25833911.644 7 135758094.78907                                  25833913.307 5 104022465.00805
E04  25607008.609 7 134565735.05007  25607006.984 4                  25607010.735 5 103108826.26205
E09  27388910.568 4 143929684.61304                                  27388916.785 3
E11  22569543.054 7 118603749.19307                                  22569541.419 5  90878190.86405
E12  26333790.746 6 138384991.60706                                  26333792.255 5
E19  28444551.585 5 149477133.20615                                  28444555.393 4
E25  25934233.242 6 136285344.28906  25934234.517 4                  25934237.684 5 104426423.16105
E36  25281844.793 6 132856967.71406  25281844.640 4                  25281848.479 5 101799534.52905
G02  21452450.305 7 112733392.27507  21452447.814 4  87844184.99804
G05  20726927.501 7 108920738.81107  20726928.175 6  84873299.57206  20726928.270 6  84873317.55206
G06  23543818.137 7 123723604.95807  23543823.169 5  96408022.63605  23543824.002 6  96408021.66006
G09  24819445.243 6 130427074.60306  24819450.772 4 101631503.76004  24819450.383 6 101631507.74506
G11  20929730.196 7 109986484.85707  20929730.127 4  85703775.58804  20929730.592 7  85703744.62407
G12  22695329.095 7 119264783.39907  22695330.183 5  92933582.63405  22695331.075 6  92933587.62206
G13  24967812.362 4
G20  20205822.230 7 106182316.98607  20205821.101 4  82739458.83904
G25  22074302.605 6 116001243.89106  22074306.444 5  90390595.10305  22074307.354 5  90390594.17505
G29  22771311.715 7 119664048.17107  22771311.494 5  93244712.76605  22771312.412 5  93244726.78305
R03                                  23381444.518 5  97348772.82705
R04                                  20147159.255 6  83912210.89706
R05  20584511.529 5 110036014.77005  20584522.120 6  85583607.75806
R11  22919538.237 4                  22919547.097 6
R19                                  20942433.653 6  87132824.92406
R20                                  20256513.779 6  84249390.17106
> 2022 06 16 19 44 46.0000000  0 31
C11  23010375.116 7 119821100.05107  23010375.674 6  92653272.51406
C14  22020171.257 7 114664811.71407  22020170.403 6  88666095.91806
C21  25512362.813 5 132849568.33605
C28  23087676.457 7
C33  23515687.742 7 122452370.51107
C34  24882224.174 6 129568290.90006
C37  26417216.492 3
E02  25833884.549 6 135757952.63306                                  25833886.516 5 104022356.15205
E04  25606657.957 7 134563891.85207  25606656.400 4                  25606659.978 6 103107414.00806
E09  27388287.643 3 143926414.71003
E11  22569546.029 7 118603764.80607                                  22569544.486 5  90878202.92205
E12  26334117.713 6 138386710.04706                                  26334119.260 5
E19  28444729.961 5 149478069.36015                                  28444733.587 4
E25  25934638.646 7 136287475.02207  25934640.232 4                  25934643.138 5 104428055.78805
E36  25281497.189 6 132855140.17606  25281497.512 3                  25281501.081 5 101798134.32605
G02  21452570.409 7 112734022.25007  21452567.699 4  87844675.88904
G05  20726520.481 7 108918598.88707  20726520.944 6  84871632.10106  20726521.436 6  84871650.09106
G06  23544282.377 6 123726046.16206  23544287.650 5  96409924.87705  23544288.512 6  96409923.88706
G09  24819764.893 5 130428753.22505  24819770.228 4 101632811.75104  24819769.726 5 101632815.85405
G11  20929944.362 7 109987611.12407  20929944.443 4  85704653.20704  20929944.840 7  85704622.21507
G12  22695887.278 7 119267716.53107  22695888.339 5  92935868.18605  22695888.806 6  92935873.23306
G13  24967116.699 4
G20  20205855.984 7 106182494.40807  20205854.859 4  82739597.10304
G25  22074475.306 6 116002150.46406  22074478.950 5  90391301.56805  22074479.675 6  90391300.58406
G29  22770695.068 7 119660806.80907  22770694.786 5  93242187.05205  22770695.686 5  93242201.07705
R03                                  23382110.036 4  97351545.44104
R04                                  20147272.350 6  83912681.66806
R05  20583875.254 5 110032616.23805  20583885.317 6  85580964.45906
R11  22919432.022 4                  22919442.360 5
R19                                  20942728.115 6  87134049.94906
R20                                  20256175.887 6  84247983.78506
> 2022 06 16 19 44 47.0000000  0 32
C11  23010675.602 6 119822665.28506  23010676.284 6  92654482.96606
C14  22019879.690 7 114663293.50807  22019878.725 6  88664921.92206
C21  25512853.899 6
C28  23087234.579 7
C33  23515126.795 7 122449449.15407
C34  24882669.746 7 129570611.01107
C37  26417523.017 3
E02  25833857.034 6 135757808.81306                                  25833859.219 5 104022245.90605
E04  25606306.745 7 134562046.69607  25606305.288 4                  25606308.952 6 103106000.19406
E09  27387665.896 4 143923146.41604                                  27387670.687 4
E11  22569548.217 6 118603776.17006                                  22569546.490 5  90878211.61405
E12  26334443.942 5 138388423.77705                                  26334445.165 4
E19  28444906.606 4 149478998.95104                                  28444910.762 3
E25  25935044.531 7 136289608.11807  25935046.394 4                  25935049.041 5 104429690.30305
E36  25281149.183 6 132853310.58906  25281149.038 5                  25281152.694 6 101796732.39206
G02  21452689.454 7 112734647.73707  21452686.721 4  87845163.29004
G05  20726113.457 7 108916459.91807  20726113.891 6  84869965.37906  20726114.684 6  84869983.41706
G06  23544745.994 6 123728482.24706  23544751.142 5  96411823.12905  23544751.308 5  96411822.23005
G09  24820083.573 6                  24820087.336 4                  24820087.884 5 101634118.12805
G11  20930157.806 7 109988732.70307  20930157.851 4  85705527.17104  20930157.985 6  85705496.16306
G12  22696445.885 7 119270652.46107  22696447.025 5  92938155.92705  22696446.899 6  92938160.93506
G13  24966422.135 3
G20  20205889.385 7 106182669.28907  20205888.112 4  82739733.39304
G25  22074648.120 7 116003057.43507  22074651.537 5  90392008.31705  22074652.569 6  90392007.24306
G29  22770077.823 6 119657561.79806  22770077.357 5  93239658.49305  22770078.080 5  93239672.48805
R03                                  23382775.791 5  97354312.71605
R04                                  20147384.504 6  83913149.16106
R05  20583240.167 5 110029218.61405  20583249.798 6  85578321.86606
R10  22781997.066 5 121440871.12815
R11  22919325.947 4                  22919336.742 5  95257542.44605
R19                                  20943020.827 5  87135271.58905
R20                                  20255836.745 5  84246573.90505
> 2022 06 16 19 44 48.0000000  0 32
C11  23010975.776 6 119824228.13606  23010976.155 6  92655691.34206
C14  22019588.327 7 114661775.96707  22019587.417 6  88663748.48306
C21  25513344.640 5
C28  23086792.740 7
C33  23514566.313 7 122446531.15207
C34  24883114.847 6 129572928.56306
C37  26417829.775 4
E02  25833830.105 6 135757667.28406                                  25833832.387 5 104022137.51805
E04  25605954.932 6 134560199.64706  25605953.814 4                  25605957.560 5 103104584.93305
E09  27387044.443 5 143919880.90605                                  27387049.914 4
E11  22569549.937 7 118603785.35407                                  22569547.904 5  90878218.57105
E12  26334769.538 4 138390132.39104                                  26334769.550 4
E19  28445082.762 5 149479922.31205                                  28445085.956 4
E25  25935451.510 7 136291746.56807  25935452.985 4                  25935455.830 5 104431328.89405
E36  25280801.154 6 132851482.97606  25280801.079 4                  25280804.928 5 101795331.94805
G02  21452808.011 7 112735270.22907  21452805.196 4  87845648.37204
G05  20725706.977 7 108914324.24607  20725707.467 6  84868301.23106  20725707.811 6  84868319.24706
G06  23545208.728 5 123730912.41105  23545213.473 5  96413716.74705  23545213.463 5  96413715.85105
G09  24820400.546 5                  24820404.177 4                  24820405.038 5 101635415.65505
G11  20930370.586 7 109989850.73207  20930370.546 4  85706398.37704  20930370.640 6  85706367.44006
G12  22697005.396 7 119273593.69007  22697006.729 5  92940447.79905  22697006.369 5  92940452.83705
G13  24965726.686 4
G20  20205922.469 7 106182843.43007  20205921.205 4  82739869.09704
G25  22074821.433 7 116003968.59607  22074824.904 5  90392718.29205  22074825.463 6  90392717.25806
G29  22769460.381 6 119654317.16606  22769459.999 5  93237130.23405  22769460.893 6  93237144.24906
R03                                  23383439.480 4  97357074.46404
R04                                  20147495.815 6  83913614.37106
R05  20582605.329 5 110025822.90105  20582614.729 6  85575680.81406
R10  22782493.233 5 121443507.56905
R11  22919220.993 3                  22919230.435 5  95257102.81405
R19                                  20943312.388 4  87136489.67504
R20                                  20255497.324 5  84245162.85605
> 2022 06 16 19 44 49.0000000  0 31
C11  23011275.985 5                  23011276.178 5  92656899.59005
C14  22019297.275 7 114660260.13907  22019296.482 6  88662576.40306
C21  25513834.944 6
C28  23086351.073 7
C33  23514006.756 7 122443616.46207
C34  24883560.283 5 129575246.57205
C37  26418135.473 4
E02  25833803.516 6 135757528.26806                                  25833805.914 5 104022031.07105
E04  25605603.418 5 134558353.02505  25605601.249 3                  25605606.345 4 103103169.82604
E09  27386423.414 6 143916618.38906                                  27386429.338 4
E11  22569551.746 6 118603794.37306                                  22569549.499 5  90878225.57305
E12  26335094.068 5 138391839.89705                                  26335094.347 4
E19  28445258.449 5 149480843.63405                                  28445260.331 3
E25  25935859.227 7 136293889.24307  25935860.591 4                  25935863.383 5 104432970.57405
E36  25280453.838 6 132849657.16306  25280453.732 4                  25280457.724 5 101793933.02005
G02  21452926.289 6 112735892.67006  21452923.632 4  87846133.41504
G05  20725301.132 7 108912191.80507  20725301.643 6  84866639.60106  20725301.739 6  84866657.60306
G06  23545670.909 5 123733340.66205  23545675.459 4  96415604.92614  23545674.435 5  96415608.15605
G09  24820717.110 5 130433752.85005  24820720.634 3 101636702.61313  24820722.441 4 101636711.73204
G11  20930583.209 6 109990968.50806  20930583.172 4  85707269.39504  20930583.192 6  85707238.41806
G12  22697566.162 7 119276539.24107  22697567.231 5  92942743.04405  22697567.079 5  92942748.09705
G13  24965033.991 4
G20  20205955.653 7 106183018.52907  20205954.486 4  82740005.53804
G25  22074995.372 7 116004883.31107  22074998.929 5  90393431.04805  22074999.787 6  90393430.03106
G29  22768843.569 5                                                  22768844.582 5  93234616.75005
R03                                  23384101.737 5  97359835.59705
R04                                  20147608.103 6  83914079.15206
R05  20581970.806 5 110022430.01605  20581979.727 6  85573041.91006
R11                                  22919125.962 3
R19                                  20943607.517 5  87137707.68105
R20                                  20255158.440 5  84243751.98405
> 2022 06 16 19 44 50.0000000  0 32
C11  23011575.972 6                  23011576.703 6
C14  22019006.344 6 114658745.79206  22019005.821 6  88661405.36006
C21  25514324.305 6
C28  23085909.520 6
C33  23513447.144 7 122440704.07807
C34  24884005.481 6
C37  26418441.475 4
E02  25833776.871 5 135757389.45105
E04  25605251.858 5 134556506.43505  25605250.316 4                  25605254.683 5 103101755.07105
E09  27385802.620 6 143913357.97506                                  27385809.437 4
E11  22569553.280 6 118603802.74506                                  22569550.981 5  90878231.95505
E12  26335418.578 5 138393545.64305                                  26335419.268 4
E19  28445433.764 5 149481763.24805                                  28445434.729 4
E25  25936267.414 7 136296034.19507  25936269.423 4                  25936271.430 5 104434614.12405
E36  25280106.523 6 132847831.57506  25280106.238 3                  25280110.299 4 101792534.32204
G02  21453044.454 7 112736513.87007  21453041.823 4  87846617.47204
G05  20724895.688 7 108910061.25707  20724896.178 6  84864979.43706  20724896.194 6  84864997.42806
G06  23546132.833 5                                                  23546136.800 5  96417499.56405
G09  24821033.371 5 130435414.35305  24821036.844 3 101637997.31803  24821037.674 5 101638006.20905
G11  20930795.706 7 109992085.05307  20930795.617 4  85708139.44004  20930795.998 6  85708108.48006
G12  22698127.089 7 119279487.35307  22698128.221 5  92945040.28505  22698128.147 5  92945045.27905
G13  24964342.146 5
G20  20205988.885 7 106183193.95807  20205987.872 4  82740142.23204
G25  22075169.845 7 116005799.73007  22075173.283 6  90394145.13106  22075173.903 6  90394144.16806
G29  22768226.024 5                                                  22768227.473 5  93232088.54805
R03                                  23384765.230 5  97362594.85805
R04                                  20147719.444 6  83914543.99306
R05  20581336.590 5 110019039.28805  20581345.509 6  85570404.70306
R10  22783481.431 3
R11  22919006.946 3                  22919023.499 4
R19                                  20943899.801 5  87138924.56805
R20                                  20254818.660 5  84242340.48805
> 2022 06 16 19 44 51.0000000  0 32
C11  23011876.168 5                  23011877.222 5
C14  22018715.829 7 114657233.26607  22018715.563 6  88660235.76506
C21  25514813.996 5
C28  23085468.162 6
C33  23512888.515 7 122437794.20807
C34  24884450.898 6
C37  26418750.169 4
E02  25833750.513 6 135757251.00306                                  25833753.392 4 104021818.44104
E04  25604901.139 6 134554661.89806  25604899.714 4                  25604903.585 5 103100341.65305
E09  27385182.798 5 143910100.93805                                  27385189.889 5
E11  22569554.908 6 118603811.18206                                  22569552.583 5  90878238.37905
E12  26335743.234 5 138395251.85505                                  26335743.836 4
E19  28445608.376 5 149482682.75705                                  28445609.319 4
E25  25936675.870 6 136298180.95506  25936678.362 4                  25936680.110 5 104436259.12905
E36  25279758.931 5 132846005.85505  25279759.978 3                  25279763.333 5 101791135.26805
G02  21453162.659 7 112737135.48207  21453160.138 4  87847101.84604
G05  20724490.688 7 108907932.68307  20724491.078 6  84863320.80906  20724491.042 6  84863338.84106
G06  23546594.845 6 123738195.31306  23546599.127 4  96419386.49614  23546599.628 5  96419391.42705
G09  24821349.462 6                  24821353.408 3                  24821352.798 5 101639300.09505
G11  20931008.298 7 109993202.00307  20931008.116 4  85709009.79904  20931008.486 6  85708978.79506
G12  22698688.566 7 119282438.05407  22698689.718 5  92947339.54405  22698690.466 5  92947344.52505
G13  24963649.864 5
G20  20206022.569 7 106183370.39107  20206021.462 4  82740279.71704
G25  22075344.262 6 116006716.97706  22075347.827 5  90394859.89405  22075348.051 4  90394858.89604
G29  22767608.082 6                                                  22767608.936 5  93229560.12705
R03                                  23385428.528 3
R04                                  20147831.350 6  83915009.62506
R05  20580702.360 5 110015651.24405  20580711.577 6  85567769.54006
R10  22783980.379 3
R11  22918904.648 3                  22918918.009 4
R19                                  20944192.412 5  87140141.98105
R20                                  20254478.663 5  84240928.56105
> 2022 06 16 19 44 52.0000000  0 31
C11  23012176.975 6                  23012177.500 6
C14  22018425.773 7 114655722.82907  22018425.563 6  88659067.84106
C21  25515303.075 5
C28  23085026.485 7
C33  23512330.339 7 122434886.73507
C34  24884896.365 6
C37  26419057.499 4
E02  25833724.304 6 135757112.38206                                  25833727.010 5 104021712.48405
E04  25604550.910 6 134552819.20206  25604548.692 4                  25604552.756 5 103098929.75105
E09  27384563.631 4 143906846.00504                                  27384571.119 4
E11  22569556.579 6 118603819.97806                                  22569554.244 5  90878245.13505
E12  26336068.158 5 138396959.19705                                  26336068.937 4
E19  28445783.137 5 149483602.53405                                  28445784.365 4
E25  25937084.892 5 136300329.22705  25937086.353 3                  25937088.065 4 104437905.31804
E36  25279410.952 6 132844179.68606  25279412.551 4                  25279415.735 5 101789735.96005
G02  21453281.122 7 112737757.49007  21453278.529 4  87847586.53404
G05  20724086.060 7 108905805.96607  20724086.338 6  84861663.62606  20724086.443 6  84861681.64706
G06  23547056.332 6                  23547061.072 4                  23547061.594 5  96421283.70805
G09  24821665.605 5 130438735.22405  24821669.394 3 101640587.01313  24821668.510 4 101640594.09104
G11  20931220.878 7 109994319.48707  20931220.748 4  85709880.56304  20931221.168 6  85709849.59506
G12  22699250.047 6 119285390.87806  22699251.624 5  92949640.44405  22699252.032 4  92949645.52804
G13  24962958.878 5
G20  20206056.413 7 106183547.82907  20206055.251 4  82740417.97904
G25  22075519.248 6 116007635.41406  22075522.656 5  90395575.54705  22075522.293 5  90395574.55205
G29  22766990.371 6                                                  22766992.072 5  93227030.98905
R03                                  23386092.314 5
R04                                  20147943.184 6  83915476.31706
R05  20580068.825 5 110012265.83605  20580078.621 6  85565136.41906
R11                                  22918811.128 4
R19                                  20944485.913 6  87141360.15906
R20                                  20254139.201 5  84239516.43805
> 2022 06 16 19 44 53.0000000  0 31
C11  23012477.276 6                  23012478.062 6
C14  22018135.986 6 114654213.82706  22018135.925 6  88657901.08406
C21  25515792.566 5
C28  23084584.915 6
C33  23511772.307 6 122431981.07206
C34  24885342.117 6
C37  26419364.561 4
E02  25833697.985 5 135756974.20505                                  25833700.720 4 104021606.60904
E04  25604200.682 6 134550977.81806  25604198.425 4                  25604202.270 5 103097518.86405
E09  27383944.608 5 143903591.48505                                  27383952.215 4
E11  22569558.153 5 118603828.58605                                  22569556.498 4  90878252.77604
E12  26336393.265 5 138398667.07905                                  26336393.952 4
E19  28445958.427 5 149484521.97205                                  28445960.140 4
E25  25937494.042 6 136302478.60306  25937495.113 4                  25937497.063 4 104439552.21904
E36  25279063.967 6 132842353.53306  25279064.207 4                  25279068.098 5 101788336.72005
G02  21453399.594 6
G05  20723681.665 7 108903680.88507  20723681.919 6  84860007.71906  20723681.993 6  84860025.73206
G06  23547518.462 5                  23547522.927 4                  23547523.784 5  96423176.19605
G09  24821981.783 6                  24821985.790 3                  24821984.154 4 101641888.94204
G11  20931433.392 6                                                  20931433.823 6  85710720.51106
G12  22699812.932 6 119288344.51806  22699813.742 5  92951941.97705  22699814.821 4  92951947.30204
G13  24962267.914 3
G20  20206090.177 6 106183726.39906  20206089.243 4  82740557.11604
G25  22075694.221 7 116008554.53607  22075697.624 5  90396291.74505  22075697.278 5  90396290.76705
G29  22766372.955 5                  22766373.055 3                  22766374.097 4  93224501.78704
R03  23386738.172 3                  23386755.603 4
R04                                  20148055.605 5  83915943.72305
R05  20579436.231 5 110008882.50705  20579445.338 6  85562504.89506
R11                                  22918704.954 5
R19                                  20944780.768 5  87142579.78405
R20                                  20253800.272 5  84238104.06105
> 2022 06 16 19 44 54.0000000  0 31
C11  23012778.155 6                  23012779.254 5
C14  22017846.475 6 114652706.67006  22017846.409 6  88656735.46506
C21  25516281.216 5
C28  23084143.299 6
C33  23511214.006 6
C34  24885788.064 5
C37  26419671.752 3
E02  25833671.947 6 135756836.57206                                  25833673.835 4 104021500.91104
E04  25603850.868 6 134549138.08006  25603847.998 4                  25603851.898 5 103096109.22605
E09  27383325.977 5 143900340.04205                                  27383332.574 4
E11  22569559.883 6 118603837.79706                                  22569557.844 5  90878259.82505
E12  26336718.913 5 138400382.20805                                  26336718.914 4
E19  28446133.292 4 149485442.23604                                  28446135.821 4
E25  25937903.614 6 136304629.41506  25937904.677 4                  25937905.991 5 104441200.13205
E36  25278716.785 5 132840527.84105  25278716.292 3                  25278720.352 4 101786937.76704
G02  21453518.032 7                  21453515.502 4
G05  20723277.592 7 108901557.05707  20723277.746 6  84858352.79406  20723277.768 6  84858370.76706
G06  23547981.139 6 123745481.98606  23547985.128 4  96425063.43914  23547986.338 5  96425069.46705
G09  24822297.687 6 130442056.94706  24822301.905 3 101643176.31113  24822301.302 5 101643183.26405
G11  20931646.044 7 109996554.70907  20931646.115 4  85711591.06314  20931646.601 6  85711592.10906
G12  22700375.553 7                                                  22700377.537 5  92954250.42305
G13  24961577.630 4
G20  20206124.698 7 106183905.93407  20206123.345 4  82740697.03104
G25  22075869.341 6 116009475.05706  22075872.754 5  90397009.03105  22075872.015 5  90397007.63605
G29  22765755.243 5                                                  22765756.335 5  93221972.54405
R03                                  23387419.456 5
R04                                  20148168.032 6  83916412.45906
R05  20578802.435 4 110005501.19104  20578813.302 5  85559874.92705
R11                                  22918596.776 5
R19                                  20945072.302 5  87143799.68305
R20                                  20253461.025 5  84236691.97005
> 2022 06 16 19 44 55.0000000  0 31
C11  23013079.565 6                  23013080.484 6
C14  22017557.194 7 114651200.56407  22017556.985 6  88655570.86306
C21  25516770.579 5
C28  23083701.227 7
C33  23510656.872 6
C34  24886234.723 6
C37  26419980.987 4
E02  25833645.551 6 135756699.14306                                  25833647.721 4 104021395.78804
E04  25603500.658 6 134547299.43606  25603498.326 4                  25603502.292 5 103094700.48705
E09  27382706.950 5 143897088.72105                                  27382713.428 4
E11  22569561.627 7 118603847.19807                                  22569559.561 5  90878266.99305
E12                                                                  26337044.046 4
E19  28446308.461 5 149486363.05905                                  28446311.511 4
E25  25938312.802 5 136306780.92305  25938313.187 3                  25938315.514 4 104442848.82004
E36  25278369.329 6 132838701.79506  25278368.820 3                  25278372.620 5 101785538.58905
G02  21453636.361 7 112739626.91407  21453634.010 4  87849045.44014
G05  20722873.677 7 108899434.45207  20722873.781 6  84856698.81506  20722874.135 6  84856716.80906
G06  23548443.967 6 123747911.93706  23548447.509 4  96426956.90704  23548449.212 5  96426962.86205
G09  24822613.609 6 130443718.13406  24822617.985 3 101644470.75803  24822617.513 4 101644477.79104
G11  20931858.889 7 109997673.51107  20931859.009 4  85712462.86704  20931859.276 6  85712463.86006
G12  22700938.426 6 119294256.73906  22700938.929 5  92956549.66515  22700940.003 5  92956554.73005
G13  24960885.575 4
G20  20206158.904 7 106184086.21807  20206157.608 4  82740837.51104
G25  22076044.754 6                                                  22076048.390 4  90397724.03604
G29  22765137.306 6 119631603.77706                                  22765139.042 5  93219443.21205
R03                                  23388082.052 4
R04                                  20148281.355 6  83916882.03906
R05  20578170.244 5 110002121.27805  20578181.556 6  85557246.16306
R11  22918481.373 3                  22918491.322 4
R19                                  20945365.964 5  87145019.36305
R20                                  20253121.499 5  84235279.79705
> 2022 06 16 19 44 56.0000000  0 31
C11  23013381.009 4                  23013381.940 5
C14  22017268.080 6 114649695.55006  22017268.052 6  88654407.15906
C21  25517260.279 5
C28  23083259.470 6
C33  23510099.890 7
C34  24886681.304 6
C37  26420288.666 3
E02  25833619.307 5 135756562.63305                                  25833622.086 4 104021291.30204
E04  25603150.932 5 134545461.57505  25603148.636 4                  25603152.731 5 103093292.00005
E09  27382088.945 5 143893839.61805                                  27382095.437 4
E11  22569563.649 6 118603856.61006                                  22569561.275 5  90878274.17005
E12  26337368.256 5 138403799.61505                                  26337369.472 4
E19                                                                  28446487.004 3
E25  25938722.711 5 136308933.89905  25938723.074 3                  25938725.155 4 104444498.18804
E36  25278021.918 6 132836876.27406  25278021.648 3                  25278025.376 4 101784139.89104
G02  21453754.745 7 112740250.11907  21453752.577 4  87849531.05304
G05  20722470.023 7 108897313.13807  20722470.058 6  84855045.84306  20722470.542 6  84855063.81306
G06  23548906.559 6 123750341.32706  23548909.802 4  96428849.94704  23548911.194 5  96428855.81805
G09  24822929.869 5 130445379.09305  24822933.960 3 101645765.03103  24822933.567 4 101645771.87404
G11  20932072.193 7 109998792.33707  20932071.967 4  85713334.68104  20932072.307 6  85713335.69206
G12  22701501.422 6 119297215.06906  22701501.891 4  92958854.86804  22701503.145 5  92958859.83505
G13  24960194.396 4
G20  20206193.354 7 106184267.16407  20206192.041 4  82740978.49904
G25  22076220.248 7                                                  22076223.916 5  90398442.82605
G29  22764519.446 5                                                  22764521.095 4  93216914.13404
R03                                  23388744.590 4
R04                                  20148394.537 6  83917351.96506
R05  20577538.874 5 109998742.69805  20577549.230 6  85554618.45206
R11  22918380.127 3                  22918386.507 5
R19                                  20945658.894 5  87146239.46305
R20                                  20252781.477 5  84233867.97105
> 2022 06 16 19 44 57.0000000  0 31
C11  23013682.225 6                  23013683.186 6
C14  22016979.288 7 114648191.21407  22016979.069 6  88653243.88606
C21  25517750.179 4
C28  23082817.701 6
C33  23509542.995 7
C34  24887128.309 6
C37  26420596.721 4
E02  25833593.686 6 135756426.38806                                  25833596.194 4 104021186.68604
E04  25602801.281 6 134543623.85506  25602799.246 4                  25602803.080 5 103091884.02505
E09  27381471.497 5 143890590.94505                                  27381477.825 4
E11  22569565.496 6 118603866.00706                                  22569562.704 5  90878281.37605
E12                                                                  26337694.112 4
E19  28446658.823 4 149488203.56004                                  28446661.621 3
E25                                  25939133.739 4                  25939135.550 4 104446148.82104
E36  25277674.670 5 132835050.76305  25277674.212 3                  25277678.177 4 101782741.18904
G02  21453873.534 7 112740873.38607  21453871.189 4  87850016.71504
G05  20722066.633 7 108895192.97907  20722066.571 6  84853393.77606  20722066.561 5  84853411.78205
G06  23549368.889 5 123752770.75305  23549372.105 4  96430742.99804  23549374.314 5  96430749.16105
G09  24823245.858 6 130447039.85806  24823249.936 3 101647059.15003  24823250.085 5 101647066.41105
G11  20932285.081 7 109999911.26207  20932284.908 4  85714206.56804  20932285.183 6  85714207.53206
G12  22702064.204 6 119300174.35206  22702065.076 4  92961160.80204  22702065.131 5  92961165.81105
G13  24959502.287 5
G20  20206227.872 7 106184448.71907  20206226.577 4  82741119.96904
G25  22076395.777 6                                                  22076399.291 4  90399162.17404
G29  22763902.434 6                                                  22763903.429 5  93214384.72105
R03                                  23389407.190 4
R04                                  20148506.836 6  83917822.43806
R05  20576907.336 5 109995365.54105  20576916.907 6  85551991.75406
R11  22918276.054 3                  22918280.749 5
R19                                  20945952.518 5  87147459.75705
R20                                  20252442.300 5  84232455.58205
> 2022 06 16 19 44 58.0000000  0 31
C11  23013983.876 6                  23013985.338 6
C14  22016690.680 7 114646688.28707  22016690.478 6  88652081.70306
C21  25518239.189 5
C28  23082375.832 7
C33  23508986.409 7
C34  24887575.233 5
C37  26420906.291 4
E02  25833567.978 6 135756290.76006                                  25833570.072 5 104021082.72405
E04  25602451.467 6 134541787.80906  25602449.927 4                  25602453.877 5 103090477.17905
E09  27380854.258 4 143887343.05504                                  27380860.205 3
E11  22569567.408 7 118603875.77007                                  22569564.537 5  90878288.86305
E12  26338018.293 4 138407219.64004                                  26338019.208 3
E19  28446833.874 5 149489124.33105                                  28446837.088 4
E25  25939542.321 5 136313242.58805  25939543.693 3                  25939545.555 4 104447800.10004
E36  25277327.173 7 132833225.39207  25277327.178 4                  25277330.969 5 101781342.42105
G02  21453992.200 7 112741497.04807  21453989.871 4  87850502.68804
G05  20721663.445 7 108893073.84607  20721663.289 6  84851742.51006  20721663.003 6  84851760.49806
G06  23549831.752 6                  23549836.256 4                  23549836.969 5  96432642.32905
G09  24823562.105 5                                                  24823566.137 4 101648360.55404
G11  20932497.955 7 110001030.70407  20932497.927 4  85715078.86804  20932498.350 6  85715079.87806
G12  22702627.224 5
G13  24958811.253 5
G20  20206262.794 7 106184631.11307  20206261.268 4  82741262.09204
G25  22076571.625 7                                                  22076574.769 5  90399882.44405
G29  22763285.232 5                  22763284.569 4                  22763285.713 5  93211855.73505
R03                                  23390066.875 4
R04                                  20148619.739 6  83918294.09606
R05  20576275.457 5 109991989.87705  20576285.980 6  85549366.24706
R11  22918169.768 3                  22918176.086 5
R19                                  20946245.082 5  87148680.53205
R20                                  20252102.886 5  84231043.54405
> 2022 06 16 19 44 59.0000000  0 31
C11  23014285.955 5                  23014287.113 5
C14  22016402.281 7 114645186.12207  22016401.979 6  88650920.15106
C21  25518727.988 5
C28  23081933.998 6
C33  23508429.888 7
C34  24888021.935 5
C37  26421214.471 3
E02  25833542.486 6 135756155.65906                                  25833543.875 4 104020979.29404
E04  25602102.459 5 134539951.64705  25602100.461 4                  25602104.252 5 103089070.18705
E09  27380236.135 5 143884095.83305                                  27380242.853 4
E11  22569569.258 6 118603885.67806                                  22569566.563 5  90878296.41905
E12  26338343.393 5 138408929.09905                                  26338344.702 4
E19  28447009.061 5 149490045.21305                                  28447012.272 3
E25  25939952.282 6 136315397.91306  25939953.629 4                  25939955.612 5 104449451.32805
E36  25276979.854 6 132831400.51006  25276979.912 3                  25276983.844 5 101779944.11205
G02  21454110.966 7 112742120.99607  21454108.562 4  87850988.88204
G05  20721260.327 7 108890955.69407  20721260.186 6  84850091.99706  20721260.230 6  84850109.96906
G06  23550294.263 6                                                  23550299.452 5  96434535.83905
G09  24823878.412 5                  24823882.287 3                  24823882.430 5 101649655.07805
G11  20932711.062 6 110002150.35006  20932710.966 4  85715951.32404  20932711.439 6  85715952.35506
G12  22703190.658 6                                                  22703193.672 5  92965780.40805
G13  24958120.214 5
G20  20206297.491 7 106184814.13707  20206296.114 4  82741404.71504
G25  22076747.835 7 116014090.80907  22076750.716 5  90400603.50015  22076750.984 5  90400603.51305
G29  22762668.234 5                                                  22762668.513 4  93209326.88204
R03                                  23390726.659 5
R04                                  20148733.323 6  83918766.09706
R05  20575644.795 5 109988615.29805  20575654.205 6  85546741.55306
R11  22918061.488 4
R19                                  20946539.032 5  87149901.54605
R20                                  20251763.509 5  84229631.72905
> 2022 06 16 19 45  0.0000000  0 31
C11  23014587.855 6                  23014588.671 6
C14  22016114.037 6 114643684.71906  22016113.623 6  88649759.19906
C21  25519217.616 5
C28  23081492.245 6
C33  23507873.347 7
C34  24888469.070 6
C37  26421522.754 4
E02  25833516.956 6 135756021.37806                                  25833518.403 4 104020876.44204
E04  25601752.665 6 134538116.48106  25601750.476 4                  25601755.140 5 103087664.22005
E09  27379618.117 5 143880849.48205                                  27379625.183 4
E11  22569571.094 7 118603895.88607                                  22569568.433 5  90878304.30705
E12  26338668.765 5 138410638.72905                                  26338669.878 4
E19  28447184.893 5 149490966.78505                                  28447187.819 4
E25  25940362.526 5 136317554.20605  25940364.517 3                  25940366.422 4 104451103.66604
E36  25276632.714 6 132829575.53106  25276632.744 4                  25276636.304 5 101778545.92905
G02  21454229.818 7 112742745.02007  21454227.359 4  87851475.13604
G05  20720857.340 7 108888838.34607  20720857.249 6  84848442.11306  20720857.005 6  84848460.12106
G06  23550756.528 6 123760060.79906  23550761.200 4  96436429.60914  23550761.786 5  96436429.65605
G09  24824194.758 5 130452026.13205  24824198.663 3 101650943.74713  24824198.866 4 101650950.67104
G11  20932924.302 7 110003270.43607  20932924.168 4  85716824.12204  20932924.905 6  85716825.11106
G12  22703754.371 7                                                  22703757.296 5  92968088.66705
G13  24957429.695 5
G20  20206332.418 7 106184997.99407  20206331.102 4  82741547.98204
G25  22076924.090 7                  22076926.874 5                  22076929.076 5  90401324.90805
G29  22762050.374 5                                                  22762050.263 5  93206798.09305
R03  23391382.059 3                  23391389.197 5
R04                                  20148846.480 6  83919239.14506
R05  20575013.019 5 109985241.63205  20575022.903 6  85544117.63106
R11  22917957.657 4                  22917966.054 5  95251848.11915
R19                                  20946832.411 6
R20                                  20251424.560 5  84228220.37505
> 2022 06 16 19 45  1.0000000  0 30
C11  23014889.435 6                  23014890.748 6
C14  22015825.810 7 114642184.04907  22015825.406 6  88648598.76006
C21  25519706.500 5
C28  23081050.769 6
C33  23507316.937 7
C34  24888916.287 6
C37  26421831.944 4
E02  25833491.777 6 135755887.62206                                  25833493.279 5 104020773.82005
E04  25601403.873 6 134536282.15906  25601401.604 4                  25601405.997 5 103086258.53005
E09  27379000.425 4 143877603.22004                                  27379007.951 4
E11  22569572.994 6 118603906.55106                                  22569570.649 5  90878312.41005
E12  26338994.105 5 138412348.41205                                  26338995.506 4
E19  28447359.853 5 149491889.12905                                  28447362.794 4
E25  25940773.541 6 136319710.57006  25940775.146 4                  25940777.369 4 104452757.68604
E36  25276285.430 6 132827750.89506  25276284.727 4                  25276289.040 5 101777147.70405
G02  21454348.721 7 112743369.73407  21454346.218 4  87851961.92804
G05  20720454.583 7 108886721.60407  20720454.424 6  84846792.70306  20720454.003 6  84846810.72506
G06  23551219.127 6 123762491.62106  23551223.805 4  96438323.75814  23551223.647 5  96438323.75405
G09  24824510.733 5 130453689.29005  24824515.134 3 101652239.72303  24824515.129 4 101652246.64304
G11  20933137.593 7 110004390.99907  20933137.394 4  85717697.28104  20933137.996 6  85717698.24906
G12  22704318.239 6 119312021.32806                                  22704320.171 5  92970397.27205
G13  24956738.530 4 131148544.65114
G20  20206367.370 7 106185182.46107  20206366.191 4  82741691.72504
G25  22077100.544 7 116015943.50507  22077103.203 4  90402047.15704  22077105.564 5  90402047.21005
R03  23392040.626 3                  23392050.653 5
R04                                  20148960.216 6  83919713.03006
R05  20574382.947 5 109981868.59805  20574391.862 6  85541494.03306
R11  22917851.219 3                  22917860.987 4
R19                                  20947126.127 5  87152333.07115
R20                                  20251084.986 5  84226809.20105
> 2022 06 16 19 45  2.0000000  0 30
C11  23015191.120 6                  23015192.379 6
C14  22015537.861 7 114640683.74907  22015537.149 6  88647438.65206
C21  25520196.697 5
C28  23080610.280 6
C33  23506760.460 7
C34  24889363.534 6
C37  26422141.094 4
E02  25833466.300 6 135755754.32006
E04  25601054.846 6 134534447.67806  25601052.956 4                  25601057.254 5 103084852.99005
E09  27378382.717 5 143874356.29405                                  27378390.098 4
E11  22569575.149 7 118603917.32307                                  22569572.923 5  90878320.75305
E12  26339319.687 5 138414058.08005                                  26339321.179 4
E19  28447535.297 4 149492812.15704                                  28447537.809 4
E25  25941183.519 6 136321866.86206  25941184.845 4                  25941187.066 4 104454409.81504
E36  25275938.086 5 132825926.52405  25275937.501 3                  25275941.785 4 101775749.59104
G02  21454467.506 7 112743994.65207  21454465.068 4  87852448.87404
G05  20720051.681 7 108884605.18307  20720051.651 6  84845143.54806  20720051.546 6  84845161.59706
G06  23551681.589 6                                                  23551685.571 5  96440217.70705
G09  24824827.267 6 130455353.07006  24824831.688 3 101653536.20703  24824831.363 4 101653543.10204
G11  20933350.939 7 110005511.94307  20933350.729 4  85718570.74104  20933351.433 6  85718571.74706
G12  22704882.092 6 119314983.70606  22704882.820 4                  22704883.294 4  92972705.39904
G13  24956047.798 4
G20  20206402.674 7 106185367.45307  20206401.388 4  82741835.87304
G25  22077276.881 6 116016870.92706  22077279.713 4  90402769.81204  22077281.583 5  90402769.71305
G29  22760816.158 6                                                  22760814.431 5  93201741.31905
R03  23392699.980 4                  23392713.542 6
R04                                  20149074.611 6  83920187.73006
R05  20573751.443 5 109978496.05905  20573761.243 6  85538871.01006
R11                                  22917759.096 4
R20                                  20250745.602 5  84225398.31005
> 2022 06 16 19 45  3.0000000  0 31
C11  23015493.098 6 119847712.94216  23015494.296 6
C14  22015249.691 7 114639183.81507  22015249.041 6  88646278.77406
C21  25520685.639 6 132892909.25216
C28  23080168.351 7 120184492.23207
C33  23506203.965 7 122402982.72307
C34  24889810.539 6
C37  26422451.367 4
E02  25833441.091 6 135755621.55006                                  25833442.682 4 104020570.02504
E04  25600705.983 6 134532613.69806  25600704.769 3                  25600708.391 5 103083447.65205
E09  27377764.160 5 143871109.59105                                  27377772.397 4
E11  22569577.198 6 118603928.26806                                  22569574.972 5  90878329.09405
E12                                                                  26339646.780 4
E19  28447711.201 5 149493735.16605                                  28447713.181 4
E25  25941593.262 5 136324023.03505  25941595.344 3                  25941597.267 4 104456062.24404
E36  25275590.784 6 132824101.70006  25275589.859 4                  25275594.519 5 101774351.55505
G02  21454586.406 7 112744619.72107  21454583.993 4  87852935.94304
G05  20719649.072 7 108882489.13807  20719648.960 6  84843494.68206  20719649.272 6  84843512.69906
G06  23552143.601 6                                                  23552146.972 5  96442111.81105
G09  24825143.926 6 130457017.31806  24825148.423 3 101654833.01903  24825148.751 5 101654840.02105
G11  20933564.301 7 110006633.10607  20933564.114 4  85719444.37204  20933564.913 6  85719445.35406
G12  22705445.581 5                                                  22705445.914 4  92975013.92804
G13  24955358.323 4
G20  20206438.026 7 106185552.81407  20206436.658 4  82741980.30704
G25  22077453.567 6 116017798.81906  22077456.298 4  90403492.84904  22077457.844 5  90403492.73705
G29  22760198.179 6
R03  23393364.714 3                  23393377.052 5
R04                                  20149189.300 6  83920662.95306
R05  20573120.681 5 109975123.93405  20573130.336 6  85536248.29706
R11                                  22917658.364 4
R19                                  20947711.568 6  87154777.21006
R20                                  20250406.555 5  84223987.66805
> 2022 06 16 19 45  4.0000000  0 31
C11  23015795.143 6 119849285.01706  23015796.360 6
C14  22014961.936 7 114637684.07907  22014960.990 6  88645119.11606
C21  25521175.123 6
C28  23079726.643 6 120182193.33806
C33  23505647.641 7 122400085.65907
C34  24890257.377 6
C37  26422760.485 3
E02  25833415.732 5 135755490.10805
E04  25600357.091 6 134530779.67706  25600355.598 4                  25600359.429 5 103082042.41105
E09                                                                  27377154.348 4
E11  22569579.336 6 118603939.27306
E12  26339970.304 5 138417477.73905                                  26339971.984 4
E19  28447887.074 5 149494659.03005                                  28447888.769 4
E25  25942003.703 6 136326179.62406  25942006.032 4                  25942007.648 4 104457714.66804
E36  25275243.823 5 132822279.08905  25275243.286 3
G02  21454705.330 7 112745244.81607  21454702.935 4  87853423.02604
G05  20719246.577 7 108880373.31507  20719246.319 6  84841845.99206  20719246.643 6  84841863.98706
G06  23552606.038 6 123769784.65606  23552610.692 4  96444003.80414  23552609.032 5  96444005.72505
G09  24825460.199 6 130458682.20406  24825465.272 3 101656130.32203  24825466.124 5 101656137.26205
G11  20933777.354 6 110007754.46506  20933777.559 4  85720318.15704  20933778.223 6  85720319.11006
G12  22706009.500 5
G13  24954665.476 4
G20  20206473.442 7 106185738.71507  20206472.058 4  82742125.15904
G25  22077630.166 6 116018727.12106  22077632.978 4  90404216.19604  22077633.628 5  90404216.15305
G29  22759581.003 5                                                  22759579.364 4  93196685.19004
R03  23394025.253 3                  23394038.656 4
R04                                  20149303.641 6  83921138.95906
R05  20572489.539 5 109971752.08505  20572499.325 6  85533625.76106
R11  22917544.492 3                  22917552.691 4
R19                                  20948006.240 5  87155999.92705
R20                                  20250067.372 5  84222577.05305
> 2022 06 16 19 45  5.0000000  0 31
C11  23016097.143 6 119850858.05306  23016098.007 5
C14  22014673.886 6 114636184.59506  22014672.857 6  88643959.58306
C21  25521664.728 6
C28  23079284.981 6 120179894.37306
C33  23505091.141 7 122397188.44807
C34  24890704.030 6
C37  26423072.488 3
E02  25833390.327 6 135755357.62606                                  25833393.027 4 104020367.96104
E04  25600008.264 6 134528946.16706  25600006.744 4                  25600010.260 5 103080637.32905
E09  27376527.991 5 143864614.27105                                  27376536.298 4
E11  22569581.555 6 118603950.05806                                  22569579.368 5  90878345.93405
E12  26340295.933 5 138419187.63905                                  26340297.446 4
E19  28448062.852 5 149495583.49105                                  28448064.418 4
E25  25942414.316 5 136328336.00305  25942416.254 3                  25942417.971 4 104459367.09304
E36  25274896.819 6 132820456.26606  25274896.319 4                  25274900.130 4 101771555.22504
G02  21454824.259 6 112745869.90206  21454821.927 3  87853910.09203
G05  20718843.898 7 108878257.56507  20718843.686 6  84840197.35806  20718844.035 6  84840215.37806
G06  23553068.565 6 123772215.39606  23553073.184 4  96445897.88304  23553070.613 5  96445899.81205
G09  24825777.076 6                                                  24825782.909 5 101657435.23205
G11  20933990.770 6                                                  20933991.801 6  85721192.95506
G12  22706573.164 6                                                  22706574.071 5  92979629.88905
G13  24953973.242 5
G20  20206508.694 6 106185924.61606  20206507.388 4  82742270.01504
G25  22077806.632 6                                                  22077810.767 4  90404939.46204
G29  22758963.855 5                                                  22758962.070 4  93194157.33704
R03                                  23394702.486 4
R04                                  20149418.303 6  83921615.41706
R05  20571858.832 5 109968380.56005  20571868.873 6  85531003.50206
R11  22917434.723 4                  22917447.822 5
R19                                  20948299.206 5  87157223.09205
R20                                  20249728.458 5  84221166.59305
> 2022 06 16 19 45  6.0000000  0 31
C11  23016399.027 6                  23016400.201 6
C14  22014385.640 6                  22014385.074 6  88642800.37406
C21  25522155.116 5
C28  23078843.306 6
C33  23504534.753 6
C34  24891151.386 6
C37  26423383.490 4
E02  25833365.412 6 135755226.05606                                  25833367.909 4 104020267.24804
E04  25599659.020 6 134527112.65006  25599657.940 4                  25599661.199 5 103079232.54405
E09  27375910.026 5 143861366.45205                                  27375917.609 4
E11  22569583.606 6 118603961.17506                                  22569581.383 5  90878354.28005
E12  26340621.404 5 138420897.36205                                  26340622.868 4
E19  28448238.825 5 149496508.34705                                  28448240.399 3
E25  25942824.521 5 136330492.24805  25942826.011 3                  25942829.235 4 104461019.10204
E36  25274549.581 6 132818631.52506  25274548.655 3                  25274553.071 4 101770157.14404
G02  21454943.476 7 112746495.44807  21454940.994 3  87854397.54003
G05  20718441.332 7 108876142.33207  20718441.137 6  84838549.12506  20718442.165 6  84838567.16206
G06  23553531.027 6                                                  23553534.362 5  96447794.07205
G09  24826094.503 6                                                  24826100.236 5 101658732.51905
G11  20934204.237 7 110009997.71407  20934204.087 3  85722066.13813  20934205.210 6  85722067.10806
G12  22707137.240 6                                                  22707138.427 5  92981938.43505
G13  24953281.885 4
G20  20206544.036 7 106186111.02507  20206542.829 4  82742415.27204
G25  22077983.447 6                                                  22077986.778 5  90405663.25905
G29  22758346.556 5                                                  22758344.416 4  93191629.71504
R03                                  23395368.078 5
R04                                  20149533.253 6  83922092.76006
R05  20571227.488 4                  20571238.388 6  85528381.45506
R11  22917331.102 4                  22917342.672 5
R19                                  20948593.025 5  87158446.40905
R20                                  20249389.596 5  84219756.60405
> 2022 06 16 19 45  7.0000000  0 31
C11  23016701.038 6                  23016701.979 5
C14  22014097.817 7                  22014097.330 6  88641641.82606
C21  25522644.751 6
C28  23078402.253 7
C33  23503978.645 7
C34  24891598.590 6
C37  26423692.479 4
E02  25833340.524 6 135755095.47906                                  25833342.902 4 104020167.10304
E04  25599310.376 6 134525279.90406  25599308.585 4                  25599312.049 5 103077828.23405
E09  27375291.594 5 143858118.63605                                  27375299.085 4
E11  22569585.761 6 118603973.04506                                  22569583.546 5  90878363.35405
E12  26340947.093 5 138422607.80405                                  26340948.581 4
E19  28448415.276 5 149497434.35405                                  28448416.478 3
E25  25943235.161 6 136332649.11006  25943236.162 3                  25943239.761 4 104462671.70504
E36  25274202.320 5 132816807.03405  25274202.614 3                  25274205.844 4 101768759.26104
G02  21455062.663 7 112747121.44807  21455060.024 3  87854885.34403
G05  20718039.052 7 108874027.83607  20718038.733 6  84836901.46806  20718039.371 6  84836919.43106
G06  23553993.531 6 123777078.84406                                  23553998.438 5  96449688.81205
G09  24826412.030 6 130463681.68806                                  24826416.599 5 101660032.00205
G11  20934417.814 7 110011120.22907  20934417.572 3  85722940.83803  20934418.566 6  85722941.82806
G12  22707700.754 6 119329794.68606  22707701.451 3                  22707703.674 5  92984247.03505
G13  24952589.271 4
G20  20206579.788 7 106186298.54607  20206578.503 4  82742561.39504
G25  22078160.436 6 116021513.44006                                  22078163.973 5  90406388.22105
G29  22757729.155 6                                                  22757727.153 5  93189102.64505
R03  23396013.283 3                  23396029.931 5
R04                                  20149648.208 6  83922571.05206
R05  20570597.767 5                  20570607.599 6
R11  22917228.492 4                  22917239.400 5
R19                                  20948889.427 5  87159669.92005
R20                                  20249050.645 5  84218347.15105
> 2022 06 16 19 45  8.0000000  0 31
C11  23017003.120 6
C14  22013810.141 7                  22013809.682 6  88640483.14706
C21  25523134.900 6
C28  23077961.175 6
C33  23503422.295 7
C34  24892045.691 6
C37  26424000.332 4
E02  25833315.698 6 135754965.05906                                  25833318.127 4 104020067.12504
E04  25598961.691 6 134523446.97706  25598959.495 4                  25598962.849 5 103076423.85105
E09  27374673.134 4 143854869.03804                                  27374680.472 3
E11  22569587.994 6 118603984.84306                                  22569585.873 5  90878372.50505
E12  26341272.349 5 138424318.13805                                  26341273.955 4
E19  28448591.571 5 149498360.83605                                  28448593.224 4
E25  25943645.227 6 136334805.53406  25943647.341 4                  25943649.623 4 104464324.12504
E36  25273855.007 6 132814982.93306  25273855.759 3                  25273858.825 4 101767361.40504
G02  21455181.855 7 112747747.57207  21455179.189 3  87855373.23103
G05  20717636.704 7 108871913.23107  20717636.321 6  84835253.72706  20717637.420 6  84835271.75606
G06  23554456.329 6 123779510.12206  23554460.804 4                  23554461.503 5  96451583.31705
G09  24826729.323 6 130465349.90406                                  24826734.196 5 101661332.05905
G11  20934631.597 7 110012242.92107  20934631.263 3  85723815.65803  20934632.399 6  85723816.62306
G12  22708264.646 6                                                  22708267.189 4  92986555.72504
G13  24951897.265 5
G20  20206615.525 7 106186486.17507  20206614.248 4  82742707.59504
G25  22078337.405 7 116022443.70007  22078340.439 4  90407113.00214  22078341.176 5  90407113.02905
G29  22757111.568 6                                                  22757110.517 5  93186575.60305
R03  23396678.294 3                  23396693.210 5
R04                                  20149762.974 6  83923049.90806
R05  20569967.139 5                  20569977.367 6
R11  22917126.767 4                  22917135.801 5
R19                                  20949183.834 5  87160893.32005
R20                                  20248711.264 5  84216937.88405
> 2022 06 16 19 45  9.0000000  0 31
C11  23017305.035 6                  23017306.205 6
C14  22013522.503 7                  22013522.191 6  88639325.03106
C21  25523625.145 5
C28  23077520.081 7
C33  23502866.050 7
C34  24892493.263 6 129621761.56006
C37  26424308.722 4
E02  25833291.050 6 135754835.50506                                  25833293.185 4 104019967.96904
E04  25598612.954 6 134521614.66206  25598610.847 4                  25598614.190 5 103075019.89905
E09  27374055.027 4 143851620.16604                                  27374061.693 4
E11  22569590.545 6 118603997.36006                                  22569588.115 5  90878381.96905
E12  26341598.055 6 138426028.92806                                  26341599.198 5
E19  28448768.415 4 149499289.58104                                  28448770.201 3
E25  25944055.684 6 136336962.21606  25944057.460 4
E36  25273507.861 6 132813159.30906  25273508.158 4                  25273511.649 5 101765963.99505
G02  21455301.097 7 112748374.48907  21455298.514 4  87855861.73904
G05  20717234.351 7 108869799.28307  20717234.039 6  84833606.49706  20717234.881 6  84833624.47806
G06  23554918.962 7 123781942.28607  23554923.636 4  96453474.52314  23554924.243 5  96453478.54805
G09  24827046.978 5 130467019.88705  24827050.889 3 101662623.22113  24827052.694 4 101662632.80704
G11  20934845.436 7 110013366.45807  20934845.094 3  85724691.13203  20934845.938 6  85724692.15106
G12  22708828.652 6                                                  22708831.023 5  92988864.35205
G13  24951206.985 4
G20  20206651.375 7 106186674.76907  20206650.153 4  82742854.55704
G25  22078514.488 7 116023374.76107  22078517.594 4  90407838.49804  22078518.647 5  90407838.43705
G29  22756494.232 6                                                  22756493.709 6  93184049.49106
R03                                  23397359.281 4
R04                                  20149877.556 6  83923529.97006
R05  20569337.569 5                  20569346.729 6  85520517.57706
R11  22917021.603 3                  22917031.766 5  95247970.48615
R19                                  20949478.022 6  87162117.21106
R20                                  20248372.526 5  84215529.36305
> 2022 06 16 19 45 10.0000000  0 31
C11  23017607.124 7                  23017608.380 6
C14  22013234.954 7                  22013234.549 7  88638167.03307
C21  25524115.193 5
C28  23077078.990 7
C33  23502309.684 7
C34  24892940.582 7 129624089.96407
C37  26424616.151 4
E02  25833266.311 6 135754706.81506                                  25833268.751 4 104019869.36804
E04  25598264.185 6 134519782.34606  25598261.872 4                  25598265.529 5 103073615.88805
E09  27373436.506 5 143848370.39105                                  27373444.077 4
E11  22569592.881 7 118604009.94307                                  22569590.671 5  90878391.65405
E12  26341923.726 5 138427739.80605                                  26341924.670 4
E19  28448944.935 5 149500217.49005                                  28448946.795 4
E25  25944466.184 6 136339118.80206  25944468.129 3                  25944469.880 4 104467628.93104
E36  25273160.740 6 132811335.59706  25273160.427 4                  25273164.612 5 101764566.78805
G02  21455420.566 7 112749001.50307  21455417.831 4  87856350.32604
G05  20716831.983 7 108867685.46707  20716831.779 6  84831959.36806  20716832.386 6  84831977.37406
G06  23555382.007 6 123784374.40306  23555386.441 4  96455369.66504  23555387.150 5  96455373.76205
G09  24827364.921 5                                                  24827369.817 4 101663934.28904
G11  20935059.320 7 110014490.18907  20935058.995 4  85725566.76304  20935059.608 6  85725567.76406
G12  22709392.558 6                  22709392.974 4                  22709394.683 5  92991172.68805
G13  24950515.404 4
G20  20206687.438 7 106186863.67507  20206686.093 4  82743001.76004
G25  22078692.005 7 116024306.33607  22078694.890 4  90408564.39104  22078695.870 6  90408564.43706
G29  22755877.585 6                  22755877.029 4                  22755877.582 5  93181523.66305
R03                                  23398022.664 5
R04                                  20149992.756 7  83924010.58907
R05  20568706.768 5                  20568715.938 6  85517896.62106
R11  22916921.542 4                  22916928.500 5  95247542.33805
R19                                  20949771.683 6  87163341.80806
R20                                  20248033.925 5  84214121.19705
> 2022 06 16 19 45 11.0000000  0 31
C11  23017909.443 6                  23017910.597 6
C14  22012947.412 7                  22012947.037 6  88637009.25406
C21  25524605.721 5
C28  23076637.796 6
C33  23501753.209 7
C34  24893387.936 6 129626418.55806
C37  26424925.976 3
E02  25833241.886 6 135754578.63706                                  25833243.837 4 104019771.12204
E04  25597915.635 6 134517950.44906  25597913.099 4                  25597917.239 5 103072212.09305
E09  27372818.751 5 143845120.23405                                  27372826.094 4
E11  22569595.458 7 118604023.05507                                  22569593.279 5  90878401.70905
E12  26342249.198 5 138429450.48605                                  26342250.061 4
E19  28449121.636 5 149501146.55605                                  28449123.164 3
E25  25944876.557 6 136341275.42806  25944878.472 4                  25944880.276 5 104469281.46805
E36  25272813.680 6 132809512.52306  25272813.357 3                  25272817.591 4 101763169.70904
G02  21455539.927 7 112749628.96707  21455537.211 4  87856839.25804
G05  20716429.846 7 108865572.01307  20716429.580 6  84830312.52106  20716429.985 6  84830330.52206
G06  23555845.068 6                                                  23555849.755 5  96457268.62705
G09  24827683.106 5                                                  24827686.590 4 101665236.63904
G11  20935273.453 6 110015614.58206  20935272.983 4  85726442.91604  20935273.562 6  85726443.87906
G12  22709956.589 6                                                  22709958.468 5  92993481.17005
G13  24949825.142 5
G20  20206723.430 7 106187053.18407  20206722.192 4  82743149.43104
G25  22078869.567 7 116025238.66007  22078872.300 5  90409290.88605  22078873.281 5  90409290.88705
G29  22755260.452 6 119579712.03616  22755260.363 4  93178986.90614  22755261.790 5  93178997.98005
R03                                  23398685.635 4
R04                                  20150108.572 6  83924492.19206
R05  20568075.982 5 109948158.45515  20568085.687 6  85515275.93006
R11  22916818.940 3                  22916825.779 5  95247115.43505
R19                                  20950066.025 6  87164566.79406
R20                                  20247695.563 5  84212713.47105
> 2022 06 16 19 45 12.0000000  0 31
C11  23018211.967 5                  23018212.685 5
C14  22012659.995 7                  22012659.567 6  88635851.68906
C21  25525096.153 6
C28  23076197.027 7
C33  23501196.664 7
C34  24893834.720 6 129628747.16906
C37  26425235.520 3
E02  25833217.604 6 135754451.40306                                  25833219.425 4 104019673.60204
E04  25597567.054 6 134516118.59706  25597564.219 4                  25597568.934 5 103070808.62005
E09  27372200.519 5 143841869.25105                                  27372208.348 4
E11  22569598.184 7 118604036.59107                                  22569595.846 5  90878412.13105
E12  26342574.507 5 138431161.58305                                  26342575.380 4
E19  28449298.197 5 149502076.59905                                  28449300.603 3
E25  25945287.019 6 136343431.92606  25945288.717 4                  25945290.521 5 104470933.83605
E36  25272466.752 6 132807689.21806  25272466.230 4                  25272470.717 5 101761772.91105
G02  21455659.527 7 112750256.94907  21455656.722 4  87857328.59304
G05  20716027.747 7 108863458.75207  20716027.413 6  84828665.82506  20716027.600 6  84828683.86106
G06  23556308.303 6                                                  23556312.758 5  96459164.25305
G09  24828001.966 5 130472034.32705  24828005.695 3 101666532.65513  24828004.887 4 101666539.59704
G11  20935487.625 7 110016739.26807  20935487.017 4  85727319.29904  20935487.557 6  85727320.31406
G12  22710520.269 7 119344606.10807  22710520.914 5  92995786.21515  22710522.067 5  92995789.26905
G13  24949133.092 6
G20  20206759.541 7 106187243.35607  20206758.413 4  82743297.61604
G25  22079047.149 6 116026171.40006  22079049.760 5  90410017.70605
G29  22754644.800 5 119576474.40905  22754644.379 4  93176464.09104  22754645.241 5  93176473.11105
R03                                  23399349.014 4
R04                                  20150224.093 6  83924974.56106
R05  20567446.148 5 109944789.05505  20567455.642 6  85512655.25406
R11  22916714.430 4                  22916723.340 5  95246689.91005
R19                                  20950360.845 5  87165790.51405
R20                                  20247357.236 5  84211306.47705
> 2022 06 16 19 45 13.0000000  0 31
C11  23018514.211 6                  23018514.949 6
C14  22012372.588 7                  22012371.990 6  88634693.87406
C21  25525586.452 5
C28  23075756.256 7
C33  23500639.900 7
C34  24894281.437 5
C37  26425548.345 3
E02  25833193.273 6 135754324.94206                                  25833195.424 5 104019576.63805
E04  25597218.651 6 134514286.29806  25597215.638 4                  25597220.275 5 103069404.67305
E09  27371581.576 5 143838616.78105                                  27371589.579 4
E11  22569600.817 7 118604050.55207                                  22569598.364 5  90878422.81805
E12  26342900.045 5 138432872.70005                                  26342901.004 4
E19  28449475.371 5 149503007.92705                                  28449477.894 4
E25  25945697.191 6 136345587.68606  25945699.297 4
E36  25272120.070 5 132805866.78105  25272120.072 3                  25272123.761 5 101760376.18105
G02  21455779.024 7 112750885.15107  21455776.266 4  87857818.10104
G05  20715625.448 7 108861345.11007  20715625.180 6  84827018.83306  20715625.765 6  84827036.86806
G06  23556771.427 6                  23556775.691 4                  23556775.836 5  96461059.85205
G09  24828320.090 5 130473708.46505                                  24828323.997 5 101667844.18805
G11  20935701.607 7 110017864.58507  20935701.217 4  85728196.16704  20935701.808 6  85728197.18606
G12  22711083.484 7 119347567.29007  22711084.391 5  92998093.63805  22711085.023 5  92998096.79805
G13  24948440.793 6 131104941.19916
G20  20206795.665 7 106187433.88907  20206794.697 4  82743446.07804
G25  22079224.714 6 116027104.78706  22079227.387 5  90410745.02105  22079228.035 5  90410745.11405
G29  22754027.427 6 119573234.40006                                  22754028.632 6  93173948.84006
R03                                  23400013.725 5
R04                                  20150339.545 6  83925457.70306
R05  20566816.484 5 109941418.97605  20566824.741 6  85510034.08106
R11  22916610.277 4                  22916621.629 6  95246266.05006
R19                                  20950656.441 5  87167017.05305
R20                                  20247018.702 5  84209900.15105
> 2022 06 16 19 45 14.0000000  0 30
C11  23018816.039 6                  23018817.173 6
C14  22012085.294 7                  22012084.505 6  88633536.30106
C28  23075315.650 7
C33  23500083.349 7
C34  24894728.564 6
C37  26425860.299 3
E02  25833169.666 6 135754200.02506                                  25833171.803 5 104019481.00705
E04  25596869.840 6 134512454.33306  25596867.285 4                  25596871.321 5 103068000.97005
E09  27370962.145 5 143835361.65605                                  27370969.915 4
E11  22569603.688 6 118604065.70806                                  22569601.253 5  90878434.49305
E12  26343225.802 5 138434584.57205                                  26343226.659 4
E19  28449652.901 5 149503941.19005                                  28449655.659 4
E25  25946107.042 6 136347743.35906  25946108.195 3                  25946110.427 4 104474236.29704
E36  25271773.329 6 132804045.21806  25271773.530 4                  25271777.261 5 101758980.49405
G02  21455898.797 7 112751514.74107  21455895.991 4  87858308.69404
G05  20715223.437 7 108859231.83607  20715223.017 6  84825372.12506  20715223.587 6  84825390.14406
G06  23557234.501 6                  23557239.064 5                  23557239.029 5  96462955.92005
G09  24828639.122 4                                                  24828643.168 4 101669150.47004
G11  20935915.823 7 110018991.31407  20935915.631 4  85729074.13604  20935916.492 6  85729075.12606
G12  22711646.682 6                                                  22711647.913 5  93000403.84105
G13  24947748.143 5 131101301.71105
G20  20206832.137 7 106187625.51107  20206831.173 4  82743595.39804
G25  22079402.215 7 116028039.03807  22079405.214 4  90411473.00404  22079405.541 5  90411473.00905
G29  22753411.102 6 119569996.73006                                  22753412.641 6  93171426.03406
R03                                  23400678.548 4
R04                                  20150455.282 6  83925942.37506
R05  20566185.547 5 109938048.79005  20566194.286 6  85507412.89706
R11  22916509.518 4                  22916520.202 5  95245844.32405
R19                                  20950950.801 6  87168243.33306
R20                                  20246680.619 5  84208495.32805
> 2022 06 16 19 45 15.0000000  0 30
C11  23019118.344 6 119866588.80306  23019119.262 5
C14  22011797.799 7 114621206.66307  22011796.936 6  88632378.55606
C21  25526569.928 5
C28  23074875.274 7
C33  23499526.512 7 122368211.49507
C34  24895175.406 6
E02  25833146.353 6 135754076.21306                                  25833148.493 5 104019386.15105
E04  25596521.167 6 134510622.38306  25596518.642 4                  25596522.768 5 103066597.12505
E09  27370342.129 5 143832106.09705                                  27370349.915 4
E11  22569606.487 6 118604081.52506                                  22569604.423 5  90878446.49705
E12  26343551.297 5 138436296.81005                                  26343552.541 4
E19  28449831.264 4 149504877.11504                                  28449833.522 3
E25  25946517.098 6 136349898.50606  25946518.816 4                  25946520.719 4 104475887.76504
E36  25271426.847 7 132802224.20907  25271426.890 4                  25271430.742 5 101757585.20305
G02  21456018.561 7 112752144.72907  21456015.888 4  87858799.59904
G05  20714821.234 7 108857118.33807  20714820.812 6  84823725.24406  20714821.362 6  84823743.22106
G06  23557698.142 6                                                  23557702.924 5  96464852.31605
G09  24828959.581 4                                                  24828961.980 4 101670457.89504
G11  20936130.401 7 110020118.73407  20936130.179 4  85729952.64004  20936130.941 6  85729953.62106
G12  22712209.615 6                                                  22712211.292 5  93002710.13605
G13  24947055.005 5
G20  20206868.649 7 106187817.59007  20206867.743 4  82743745.06304
G25  22079580.061 7 116028973.74107  22079583.071 5  90412201.34105  22079583.239 6  90412201.34106
G29  22752794.951 6 119566760.11006                                  22752796.831 6  93168903.97806
R03                                  23401345.169 4
R04                                  20150572.163 6  83926427.95706
R05  20565554.343 5 109934678.10005  20565564.071 6  85504791.16506
R11                                  22916419.192 5  95245423.88705
R19                                  20951243.839 5  87169469.00505
R20                                  20246343.500 5  84207091.24805
> 2022 06 16 19 45 16.0000000  0 31
C11  23019420.368 5                  23019420.732 5
C14  22011510.312 6 114619709.11406  22011509.498 6  88631220.62006
C21  25527061.828 4
C28  23074435.085 7
C33  23498969.575 7 122365310.57207
C34  24895622.343 5
C37  26426469.790 3
E02  25833122.932 6 135753953.11306                                  25833124.805 4 104019291.73204
E04  25596172.793 5 134508789.64005  25596169.703 3                  25596174.030 4 103065192.90004
E09  27369722.446 5 143828849.03105                                  27369729.160 4
E11  22569609.400 6 118604097.45406                                  22569607.605 5  90878458.78605
E12  26343876.687 5 138438008.65405                                  26343878.670 4
E19                                                                  28450011.730 3
E25  25946927.312 6 136352052.71206  25946928.474 4                  25946930.776 5 104477538.40705
E36  25271080.349 6 132800403.35306  25271080.380 4                  25271084.451 5 101756189.96905
G02  21456138.550 6 112752775.01606  21456135.847 4  87859290.73004
G05  20714419.036 7 108855004.38707  20714418.518 6  84822078.01306  20714419.181 6  84822096.01906
G06  23558161.324 5                                                  23558166.420 5  96466749.18705
G09  24829280.697 4
G11  20936345.006 6 110021246.28106  20936344.781 4  85730831.24804  20936345.414 6  85730832.27806
G12  22712772.395 6                                                  22712774.274 5  93005015.61005
G13  24946361.730 5
G20  20206905.355 7 106188010.04807  20206904.412 4  82743895.03004
G25  22079757.911 7 116029908.75207  22079760.989 5  90412929.92005  22079761.226 6  90412929.92406
G29  22752179.297 7 119563524.34707                                  22752181.303 6  93166382.60306
R03                                  23402008.565 5
R04                                  20150689.258 5  83926914.22605
R05  20564923.251 5 109931306.76605  20564933.655 6  85502169.02706
R11  22916309.931 4                  22916317.941 5  95245004.79105
R19                                  20951539.103 5  87170696.33705
R20                                  20246005.841 5  84205687.77105
> 2022 06 16 19 45 17.0000000  0 30
C11  23019723.045 6                  23019723.365 6
C14  22011222.608 6 114618211.53106  22011221.805 6  88630062.49206
C21  25527553.727 6
C28  23073995.031 7
C33  23498412.462 7 122362409.17707
C34  24896069.197 6
E02  25833099.706 6 135753830.92306                                  25833101.546 4 104019198.11004
E04  25595824.059 6 134506956.96706  25595821.766 4                  25595824.967 5 103063788.60605
E09  27369102.340 4 143825590.75204                                  27369108.530 4
E11  22569612.568 6 118604114.24206                                  22569610.645 5  90878471.72505
E12  26344202.411 4 138439720.85404                                  26344205.130 4
E19  28450187.435 4 149506752.08804                                  28450190.541 3
E25  25947337.041 6 136354206.70806  25947338.451 4                  25947340.748 5 104479188.84405
E36  25270733.871 7 132798583.05207  25270733.565 4                  25270737.930 5 101754795.19105
G02  21456258.752 7 112753405.92007  21456255.932 4  87859782.34004
G05  20714016.759 7 108852890.50507  20714016.249 6  84820430.83306  20714016.950 6  84820448.84306
G06  23558624.233 5                                                  23558629.597 5  96468645.61505
G09  24829599.392 6                                                  24829603.252 5 101673078.96805
G11  20936559.769 6 110022374.58706  20936559.399 4  85731710.45104  20936560.299 6  85731711.46606
G12  22713335.526 7 119359404.89907  22713336.002 4  93007314.73414  22713337.036 5  93007320.73105
G13  24945667.381 4
G20  20206942.188 7 106188202.90207  20206941.126 4  82744045.30204
G25  22079936.100 7 116030844.37007  22079939.027 5  90413658.97005  22079939.329 5  90413659.02205
G29  22751563.512 7 119560289.50307  22751563.401 5  93163848.93915  22751566.182 6  93163861.98206
R03  23402659.026 4                  23402672.073 5
R04                                  20150806.102 6  83927401.35806
R05                                  20564303.044 6  85499546.84806
R11  22916208.609 4                  22916216.692 6  95244587.00006
R19                                  20951834.727 5  87171923.09805
R20                                  20245668.723 6  84204285.25706
> 2022 06 16 19 45 18.0000000  0 31
C11  23020024.787 5                  23020025.625 5
C14  22010935.074 7 114616714.32207  22010934.278 6  88628904.72606
C21  25528045.310 6
C28  23073555.194 7
C33  23497855.219 7 122359507.41007
C34  24896516.351 6
C37  26427088.614 3
E02  25833077.063 7 135753709.59107                                  25833078.172 5 104019105.27005
E04  25595474.900 5 134505124.49905  25595472.738 4                  25595475.994 4 103062384.54704
E09  27368483.024 4 143822331.04404                                  27368488.441 3
E11  22569615.818 6 118604131.24506                                  22569614.015 5  90878484.55805
E12  26344529.033 4 138441434.32004                                  26344531.205 4
E19  28450365.782 5 149507689.64005                                  28450368.440 4
E25  25947747.100 6 136356360.80106  25947748.539 4                  25947750.550 5 104480839.40405
E36  25270387.681 7 132796763.18107  25270387.524 4                  25270391.604 5 101753400.71305
G02  21456378.555 6 112754037.13406  21456376.018 3  87860274.20703
G05  20713614.429 7 108850776.90607  20713614.038 6  84818783.87306  20713614.820 6  84818801.87306
G06  23559087.301 5
G09  24829918.401 6                                                  24829923.300 5 101674389.70305
G11  20936774.501 6 110023503.41306  20936774.239 3  85732590.08103  20936774.902 6  85732591.20806
G12  22713898.530 7 119362362.89907  22713898.822 5  93009619.67605  22713899.803 5  93009625.64405
G13  24944973.997 4
G20  20206979.199 6 106188396.75106  20206977.979 4  82744196.35804
G25  22080114.249 7 116031780.79907  22080117.218 5  90414388.65405  22080117.598 6  90414388.59006
G29  22750947.920 7 119557055.57907  22750948.066 5  93161329.00505  22750950.528 6  93161341.98906
R03  23403323.281 4                  23403334.982 5
R04                                  20150923.545 5  83927889.89805
R05  20563662.156 5                  20563672.718 6
R11  22916107.738 4                  22916116.930 6  95244170.62206
R19                                  20952129.327 5  87173150.82205
R20                                  20245331.091 5  84202883.30805
> 2022 06 16 19 45 19.0000000  0 31
C11  23020327.421 6                  23020328.265 6
C14  22010647.654 6 114615217.36606  22010646.687 6  88627747.29306
C21  25528537.249 6
C28  23073115.302 7
C33  23497298.012 7 122356605.86907
C34  24896962.597 5
C37  26427399.034 3
E02  25833053.995 7 135753589.09507                                  25833055.608 5 104019012.88405
E04  25595126.169 6 134503292.52406  25595123.983 4                  25595127.738 5 103060981.77405
E09  27367861.693 4                                                  27367868.057 3
E11  22569619.308 7 118604148.70107                                  22569617.388 5  90878497.95205
E12  26344854.993 5 138443146.40205                                  26344856.301 4
E19  28450544.292 6 149508628.32106                                  28450547.077 4
E25  25948157.149 6 136358514.83306  25948158.497 4                  25948160.813 5 104482489.92105
E36  25270041.376 7 132794943.58207  25270040.647 4                  25270045.253 5 101752006.54705
G02  21456498.808 7 112754668.85807  21456496.316 3  87860766.44803
G05  20713212.362 7 108848663.68307  20713211.895 6  84817137.20706  20713212.958 6  84817155.25306
G06  23559550.874 5                                                  23559556.883 5  96472439.68905
G09  24830237.877 5 130483794.65015  24830242.292 4 101675691.19314  24830243.256 4 101675701.33104
G11  20936989.331 7 110024632.75207  20936989.120 3  85733470.07903  20936989.352 6  85733471.07106
G12  22714461.776 7 119365321.11507  22714461.788 5  93011924.78005  22714462.426 5  93011930.74005
G13  24944281.164 4
G20  20207016.141 7 106188590.75507  20207014.919 4  82744347.53204
G25  22080292.313 7 116032717.76307  22080295.498 5  90415118.75405  22080295.950 6  90415118.72006
G29  22750332.630 7 119553822.08207  22750332.818 5  93158809.39905  22750335.342 6  93158822.44806
R03  23403985.332 4                  23403999.650 5  97442699.99915
R04                                  20151041.119 6  83928379.21606
R05  20563032.580 5 109921192.72605  20563042.038 6  85494302.53206
R11  22916007.153 4                  22916017.425 6
R19                                  20952424.126 6  87174379.10706
R20                                  20244994.033 5  84201481.83505
> 2022 06 16 19 45 20.0000000  0 31
C11  23020629.878 6                  23020630.829 6
C14  22010360.032 7 114613719.90907  22010358.943 6  88626589.27506
C21  25529029.804 6
C28  23072675.735 7
C33  23496740.594 6 122353702.70106
C34  24897409.661 4
C37  26427710.402 3
E02  25833031.225 7 135753469.84307                                  25833032.996 5 104018921.44605
E04  25594777.255 6 134501459.57806  25594775.536 4                  25594779.070 5 103059577.52505
E09  27367242.458 3                                                  27367247.539 3
E11  22569622.874 6 118604167.08506                                  22569620.566 5  90878512.08705
E12  26345180.796 6 138444859.13506                                  26345181.674 5
E19  28450723.277 6 149509568.90106                                  28450725.584 4
E25  25948566.813 6 136360667.79406  25948568.102 4                  25948570.218 5 104484139.54705
E36  25269695.232 7 132793124.74007  25269694.611 4                  25269699.172 5 101750612.86905
G02  21456619.277 7 112755301.41407  21456616.726 4  87861259.34304
G05  20712810.109 7 108846549.84507  20712809.623 6  84815490.05706  20712810.627 6  84815508.08806
G06  23560013.566 6                                                  23560019.028 6  96474337.16206
G09  24830558.053 5 130485480.02505  24830563.000 3 101677004.47703  24830563.593 4 101677014.41904
G11  20937204.484 7 110025763.10607  20937204.271 4  85734350.86604  20937204.862 6  85734351.82806
G12  22715024.370 7 119368277.53507  22715024.408 5  93014228.48305  22715025.625 5  93014234.54305
G13  24943586.001 5
G20  20207053.103 7 106188785.54207  20207052.027 4  82744499.31304
G25  22080470.747 7 116033655.15507  22080473.848 5  90415849.18605  22080474.499 6  90415849.18906
G29  22749717.637 7 119550590.24907  22749717.885 5  93156291.08805  22749719.901 6  93156304.07106
R03  23404654.416 4                  23404665.953 5  97445474.52605
R04                                  20151158.838 7  83928869.27107
R05  20562401.791 5 109917820.54105  20562410.704 6  85491679.81206
R11  22915907.074 5                  22915917.695 6
R19                                  20952719.900 6  87175607.56706
R20                                  20244657.365 6  84200081.70306
> 2022 06 16 19 45 21.0000000  0 31
C11  23020932.045 6                  23020933.207 6
C14  22010072.027 7 114612221.05807  22010071.105 6  88625430.32106
C21  25529523.087 6 132938931.34216
C28  23072236.630 7 120143190.33807
C33  23496182.310 6 122350795.87206
C34  24897856.257 6
C37  26428019.498 3
E02  25833008.943 7 135753352.82207                                  25833010.560 5 104018831.78205
E04  25594428.069 6 134499626.06206  25594426.593 4                  25594430.364 5 103058172.41605
E09  27366621.479 5                                                  27366626.283 3
E11  22569626.634 6 118604187.32106                                  22569624.398 5  90878527.62005
E12  26345506.890 6 138446572.86406                                  26345507.718 5
E19  28450902.868 6 149510513.32606                                  28450905.102 4
E25  25948976.352 6 136362818.42606  25948977.631 4                  25948979.189 5 104485787.38605
E36  25269349.461 7 132791307.50407  25269348.628 4                  25269353.431 5 101749220.37105
G02  21456739.946 7 112755935.72407  21456737.430 4  87861753.61404
G05  20712407.613 7 108844434.44807  20712407.069 6  84813841.70106  20712408.166 6  84813859.67906
G06  23560477.146 7                                                  23560481.894 6  96476235.78806
G09  24830879.543 6 130487170.00106  24830884.638 3 101678321.35303  24830884.708 5 101678331.31805
G11  20937419.988 7 110026895.45907  20937419.735 4  85735233.22004  20937420.561 6  85735234.19906
G12  22715586.149 7 119371230.68707  22715586.426 5  93016529.64605  22715587.717 5  93016535.64605
G13  24942891.247 5
G20  20207090.303 7 106188981.21407  20207089.267 4  82744651.78304
G25  22080649.188 7 116034592.89107  22080652.305 6  90416579.89106  22080652.987 6  90416579.95206
G29  22749103.790 7 119547361.59807  22749103.531 5  93153775.25705  22749105.107 6  93153788.23806
R03  23405315.734 3                  23405333.705 5  97448253.23305
R04                                  20151277.300 7  83929361.11807
R05  20561770.008 5 109914445.62005  20561779.797 6  85489054.83306
R11  22915807.290 4                  22915819.067 6  95242932.05906
R19                                  20953015.810 6  87176837.04006
R20                                  20244321.468 6  84198684.06606
> 2022 06 16 19 45 22.0000000  0 30
C11  23021234.266 7                  23021235.180 6
C14  22009783.974 7 114610721.54907  22009783.126 6  88624270.78206
C21  25530017.552 6 132941504.86006
C28  23071798.097 7 120140906.32507
C33  23495623.627 7 122347886.46607
C34  24898302.363 7
C37  26428328.489 3
E02  25832987.132 7 135753238.53007                                  25832988.942 5 104018744.29105
E04  25594079.075 7 134497792.00607  25594077.358 5                  25594081.538 6 103056767.13406
E09  27365998.634 4                                                  27366004.174 4
E11  22569630.856 6 118604209.93506                                  22569628.754 5  90878544.90205
E12  26345833.262 6 138448287.96706                                  26345834.093 5
E19  28451083.297 6 149511461.87106                                  28451085.787 4
E25  25949385.232 7 136364967.51007  25949386.815 4                  25949387.825 5 104487434.09205
E36  25269004.037 7 132789492.31207  25269003.415 4                  25269007.998 5 101747829.56805
G02  21456861.040 7 112756572.22807  21456858.502 4  87862249.59004
G05  20712004.912 7 108842318.15107  20712004.354 6  84812192.63806  20712005.669 6  84812210.64806
G06  23560941.168 6                                                  23560945.646 6  96478135.79106
G09  24831202.748 5 130488865.10005  24831207.261 3 101679642.19403  24831206.863 4 101679652.27004
G11  20937635.830 7 110028030.17107  20937635.666 4  85736117.41304  20937636.082 6  85736118.41206
G12  22716147.861 7 119374181.32507  22716147.934 5  93018828.85005  22716149.753 5  93018834.85705
G20  20207127.775 7 106189178.31707  20207126.792 4  82744805.37404
G25  22080827.703 7 116035531.60707  22080830.933 6  90417311.36506  22080831.483 6  90417311.35806
G29  22748490.109 7 119544136.57507  22748489.878 5  93151262.25605  22748491.376 6  93151275.26006
R03                                  23406001.868 5  97451035.75205
R04                                  20151395.597 7  83929855.14507
R05  20561137.661 5 109911068.79805  20561148.442 6  85486428.44206
R11  22915710.714 5                  22915721.360 6
R19                                  20953311.099 6  87178067.80806
R20                                  20243986.724 5  84197289.32205
> 2022 06 16 19 45 23.0000000  0 30
C11  23021536.431 6                  23021537.475 6
C14  22009495.760 7 114609221.53207  22009495.087 6  88623110.86806
C21  25530512.248 6 132944080.95306
C28  23071359.753 7 120138623.99707
C33  23495064.500 7 122344975.36707
C34  24898748.309 7
C37  26428638.752 4
E02  25832965.682 7 135753125.90707                                  25832967.796 5 104018657.98205
E04  25593730.101 7 134495957.61907  25593728.245 4                  25593732.242 5 103055361.53805
E09  27365374.441 5                                                  27365381.527 4
E11  22569635.516 6 118604233.88106                                  22569633.458 5  90878563.27205
E12  26346159.843 6 138450003.82606                                  26346160.754 5
E19  28451264.281 4 149512413.21504                                  28451266.588 3
E25  25949793.674 7 136367115.42307  25949795.727 4                  25949796.576 5 104489079.95005
E36  25268659.020 7 132787678.25507  25268658.143 4                  25268663.209 5 101746439.56905
G02  21456982.279 7 112757209.97607  21456979.861 4  87862746.53204
G05  20711602.112 7 108840201.29407  20711601.550 6  84810543.14106  20711603.406 6  84810561.11706
G06  23561405.341 6                  23561409.885 5                  23561409.778 6  96480036.52806
G09  24831525.935 5 130490563.33605  24831530.331 3 101680965.48603  24831530.063 5 101680975.54705
G11  20937852.078 7 110029166.30707  20937851.864 4  85737002.71004  20937852.432 6  85737003.71806
G12  22716708.911 7 119377130.16507  22716709.122 5  93021126.65405  22716710.405 5  93021132.65105
G20  20207165.341 7 106189376.22607  20207164.448 4  82744959.58904
G25  22081006.474 7 116036470.90507  22081009.655 6  90418043.28306  22081010.911 6  90418043.25906
G29  22747876.750 7 119540913.68407  22747876.631 5  93148750.91505  22747878.249 6  93148763.92306
R03  23406661.601 4                  23406670.809 5  97453821.17505
R04                                  20151514.435 7  83930350.58207
R05  20560506.057 5 109907690.72705  20560516.284 6  85483801.02806
R11  22915611.958 4                  22915625.109 6  95242122.79106
R19                                  20953607.514 6  87179299.32406
R20                                  20243652.300 6  84195896.36506
> 2022 06 16 19 45 24.0000000  0 31
C11  23021838.597 6                  23021839.350 6
C14  22009207.707 7 114607721.52507  22009206.980 6  88621950.94006
C21  25531007.440 6 132946658.55906
C28  23070921.534 7 120136342.66607
C33  23494505.328 7 122342063.41907
C34  24899194.126 7
C37  26428948.421 4
E02  25832944.652 7 135753014.44707                                  25832946.542 5 104018572.56605
E04  25593381.189 7 134494123.19807  25593379.123 4                  25593383.102 5 103053955.98905
E09  27364751.083 5                                                  27364758.277 4
E11  22569640.376 6 118604258.61406                                  22569638.046 5  90878582.21005
E12  26346486.669 6 138451720.04206                                  26346487.147 5
E19  28451445.668 5 149513366.07805                                  28451448.096 4
E25  25950202.429 7 136369262.83007  25950204.840 4                  25950204.969 5 104490725.40205
E36  25268314.097 7 132785864.84507  25268313.462 4                  25268317.991 5 101745050.09805
G02  21457103.890 7 112757848.53207  21457101.413 4  87863244.10404
G05  20711199.237 7 108838084.29807  20711198.693 6  84808893.53006  20711200.513 6  84808911.54806
G06  23561869.593 6 123818465.91816  23561874.147 5  96481936.67115  23561874.299 6  96481937.69106
G09  24831849.291 6 130492263.51906  24831853.777 3 101682290.31603  24831851.989 4 101682300.33604
G11  20938068.178 7 110030303.35807  20938068.193 4  85737888.71804  20938068.358 6  85737889.72706
G12  22717269.706 7 119380078.20107  22717270.154 5  93023423.81605  22717271.357 5  93023429.77505
G13  24940802.060 4
G20  20207203.050 7 106189574.91307  20207202.260 4  82745114.40804
G25  22081185.272 7 116037410.79407  22081188.520 6  90418775.66206  22081189.168 6  90418775.66506
G29  22747263.660 7 119537692.10307  22747263.638 6  93146240.59506  22747265.347 6  93146253.57906
R03                                  23407339.151 5  97456607.92405
R04                                  20151633.854 6  83930847.12706
R05  20559874.168 5 109904312.30705  20559883.755 6  85481173.34506
R11  22915515.671 4                  22915528.486 6  95241721.17506
R19                                  20953903.795 6  87180531.42506
R20                                  20243317.751 5  84194504.37505
> 2022 06 16 19 45 25.0000000  0 31
C11  23022140.681 7                  23022141.297 6
C14  22008919.672 7 114606221.25507  22008919.115 6  88620790.85006
C21  25531502.600 7 132949237.19507
C28  23070484.017 7 120134061.71807
C33  23493946.044 7 122339150.62607
C34  24899639.897 7
C37  26429257.634 4
E02  25832923.720 7 135752903.60407                                  25832925.691 5 104018487.59205
E04  25593032.269 7 134492288.47607  25593030.404 4                  25593033.873 5 103052550.18805
E09  27364127.090 5 143799460.98415                                  27364135.018 4
E11  22569645.197 6 118604283.61706                                  22569642.714 5  90878601.37705
E12  26346813.500 5 138453436.20505                                  26346813.665 5
E19  28451626.653 4 149514319.79104                                  28451629.483 4
E25  25950611.122 7 136371409.58807  25950612.706 4                  25950613.519 5 104492370.23605
E36  25267968.919 7 132784051.57107  25267968.288 4                  25267973.005 6 101743660.68706
G02  21457225.227 7 112758487.34007  21457223.015 4  87863741.88004
G05  20710796.590 7 108835967.06407  20710795.787 6  84807243.73806  20710797.700 6  84807261.75206
G06  23562333.855 6 123820905.87606  23562338.435 5  96483837.94005  23562338.999 6  96483838.94406
G09  24832173.184 6 130493964.96606  24832177.541 3 101683616.09703  24832176.235 5 101683626.03005
G11  20938284.716 7 110031440.75607  20938284.619 4  85738775.00504  20938285.107 6  85738775.98606
G12  22717830.242 7 119383025.37507  22717830.972 5  93025720.29405  22717832.410 5  93025726.26705
G13  24940106.249 5 131061134.18015
G20  20207240.800 7 106189773.84807  20207240.148 4  82745269.41204
G25  22081364.517 7 116038350.92407  22081367.465 6  90419508.23306  22081367.519 6  90419508.23806
G29  22746650.207 6 119534471.08006  22746650.749 6  93143730.70406  22746652.211 6  93143743.71706
R03  23407998.531 4                  23408008.888 6  97459395.74306
R04                                  20151753.577 6  83931344.43606
R05  20559242.359 5 109900933.30705  20559251.768 6  85478545.28506
R11  22915419.594 4                  22915431.912 6  95241320.58106
R19                                  20954200.187 6  87181763.70706
R20                                  20242983.243 6  84193112.92106
> 2022 06 16 19 45 26.0000000  0 31
C11  23022442.512 6                  23022443.350 6
C14  22008631.270 7 114604720.98707  22008631.111 6  88619630.75506
C21  25531997.681 7 132951816.22107
C28  23070046.187 7 120131780.90307
C33  23493386.707 7 122336237.42407
C34  24900085.803 7
C37  26429567.115 4
E02  25832902.516 7 135752793.08707                                  25832904.603 5 104018402.90705
E04  25592683.048 7 134490453.76907  25592680.835 4                  25592684.885 6 103051144.36106
E09  27363502.892 4 143796183.92204                                  27363511.642 3
E11  22569650.004 6 118604308.65706                                  22569647.660 5  90878620.55605
E12  26347139.875 5 138455152.23305                                  26347140.183 4
E19  28451808.156 5 149515273.99105                                  28451811.107 4
E25  25951019.726 7 136373556.00207  25951021.756 4                  25951022.516 5 104494014.92605
E36  25267623.745 7 132782238.24607  25267622.506 4                  25267627.921 6 101742271.25106
G02  21457346.627 7 112759126.16107  21457344.607 4  87864239.66604
G05  20710393.580 7 108833849.80007  20710392.884 6  84805593.92406  20710394.467 6  84805611.92106
G06  23562797.719 6 123823345.67106  23562802.697 5  96485739.07705  23562804.070 6  96485740.09706
G09  24832497.046 6 130495666.98506  24832501.398 4 101684942.32204  24832500.772 5 101684952.38505
G11  20938501.290 7 110032578.32807  20938501.059 4  85739661.42604  20938501.569 6  85739662.40806
G12  22718390.987 7 119385972.07907  22718391.744 5  93028016.41505  22718393.716 5  93028022.43405
G13  24939409.096 4 131057470.38004
G20  20207278.920 7 106189973.05507  20207278.058 4  82745424.63504
G25  22081543.431 7 116039291.34607  22081546.411 6  90420241.03206  22081546.737 6  90420241.04206
G29  22746037.509 7 119531250.31907  22746037.926 6  93141221.02606  22746039.491 6  93141234.04206
R03  23408668.291 4                  23408679.770 6  97462184.07606
R04                                  20151873.018 6  83931842.31106
R05  20558610.197 5 109897554.37005  20558619.681 6  85475917.23606
R11  22915325.086 4                  22915334.918 5  95240920.80505
R19                                  20954496.482 6  87182996.03606
R20                                  20242648.743 6  84191721.73806
> 2022 06 16 19 45 27.0000000  0 31
C11  23022744.485 6 119885469.93806  23022745.296 6  92703077.26306
C14  22008343.248 7 114603220.59507  22008342.897 6  88618470.56206
C21  25532492.859 7 132954395.24207
C28  23069608.142 7 120129499.90807
C33  23492827.141 7 122333323.80107
C34  24900531.633 7 129663598.83717
C37  26429877.146 4
E02  25832881.307 7 135752682.69507                                  25832883.555 5 104018318.33005
E04  25592333.819 7 134488618.78407  25592331.668 4                  25592335.647 6 103049738.30606
E09  27362879.409 4 143792905.80004                                  27362887.802 3
E11  22569654.677 7 118604333.46207                                  22569652.127 5  90878639.56205
E12  26347466.420 6 138456867.88306                                  26347466.938 4
E19  28451990.665 5 149516228.49105                                  28451992.274 4
E25  25951427.708 6 136375701.98606  25951429.725 4                  25951431.115 5 104495659.25905
E36  25267278.040 6 132780424.58706  25267277.494 4                  25267282.761 6 101740881.57406
G02  21457468.398 7 112759764.82207  21457466.159 4  87864737.31704
G05  20709990.745 7 108831732.40707  20709989.955 6  84803944.00806  20709991.060 6  84803962.01406
G06  23563261.766 6 123825785.08906  23563266.914 5  96487639.93505  23563267.133 6  96487640.96306
G09  24832820.688 6 130497369.35806  24832825.340 4 101686268.87104  24832825.711 5 101686278.94505
G11  20938717.498 7 110033715.75907  20938717.517 4  85740547.73404  20938718.165 6  85740548.73106
G12  22718951.505 7 119388918.40207  22718952.468 5  93030312.25805  22718954.131 5  93030318.25105
G13  24938712.033 4 131053805.53704
G20  20207316.866 7 106190172.28907  20207315.951 4  82745579.88604
G25  22081722.216 7 116040231.84307  22081725.392 6  90420973.88706  22081726.049 6  90420973.87606
G29  22745424.946 7 119528029.48607  22745425.082 6  93138711.28806  22745426.405 6  93138724.28306
R03  23409337.232 4                  23409350.760 5
R04                                  20151992.348 6  83932340.57806
R05  20557977.610 5 109894175.29905  20557987.036 6  85473289.04806
R11  22915228.579 4                  22915238.318 6
R19                                  20954792.557 6  87184228.28406
R20                                  20242313.778 6  84190330.48006
> 2022 06 16 19 45 28.0000000  0 31
C11  23023046.650 6 119887043.03806  23023047.453 6  92704293.67006
C14  22008055.048 7 114601720.65807  22008054.487 6  88617310.70606
C21  25532988.445 7 132956974.72007
C28  23069170.143 7 120127219.13107
C33  23492267.482 7 122330410.35407
C34  24900977.284 6 129665919.78606
C37  26430187.105 4
E02  25832860.375 7 135752572.84707                                  25832862.539 5 104018234.16205
E04  25591984.576 7 134486784.11107  25591982.492 5                  25591986.606 6 103048332.53506
E09  27362256.119 4 143789627.45804                                  27362263.697 3
E11  22569659.569 7 118604358.47807                                  22569656.603 5  90878658.70005
E12  26347792.978 6 138458583.61606                                  26347793.053 4
E19  28452172.325 5 149517183.55505                                  28452174.171 4
E25  25951835.855 6 136377848.13106  25951837.640 4                  25951839.410 5 104497303.64705
E36  25266932.620 6 132778611.05606  25266932.481 4                  25266937.904 6 101739492.01306
G02  21457590.165 7 112760403.69007  21457587.743 4  87865235.13104
G05  20709587.937 7 108829615.45407  20709587.098 6  84802294.43906  20709587.652 6  84802312.45506
G06  23563725.889 6 123828224.65006  23563731.086 5  96489540.90605  23563730.840 6  96489541.91906
G09  24833144.841 6 130499072.45506  24833149.484 4 101687595.99404  24833150.020 5 101687606.01405
G11  20938934.143 7 110034853.50507  20938934.060 4  85741434.28604  20938934.775 6  85741435.27706
G12  22719511.849 7 119391864.78607  22719513.116 5  93032608.14105  22719514.949 5  93032614.14505
G13  24938014.482 4 131050140.50804
G20  20207354.965 7 106190372.05307  20207353.996 4  82745735.54604
G25  22081901.036 7 116041172.92407  22081904.467 6  90421707.19206  22081904.740 6  90421707.17406
G29  22744812.312 7 119524808.96807  22744812.281 6  93136201.79106  22744813.238 6  93136214.81006
R03  23410009.759 4                  23410018.950 5
R04                                  20152111.781 6  83932839.55606
R05  20557345.188 5 109890796.68605  20557355.370 6  85470661.23806
R11  22915133.316 4                  22915142.491 6
R19                                  20955088.779 6  87185460.79206
R20                                  20241979.542 6  84188939.55106
> 2022 06 16 19 45 29.0000000  0 31
C11  23023348.994 6 119888616.62406  23023349.811 6  92705510.47206
C14  22007767.303 7 114600221.44807  22007766.617 6  88616151.46106
C21  25533483.954 7 132959554.68207
C28  23068732.134 7 120124938.77907
C33  23491707.961 7 122327497.47107
C34  24901423.037 7 129668241.16207
C37  26430497.556 4
E02  25832839.680 6 135752463.74406                                  25832842.068 5 104018150.58905
E04  25591635.602 7 134484950.04707  25591633.456 5                  25591637.555 6 103046927.22106
E09  27361631.782 4 143786349.49804                                  27361640.071 4
E11  22569664.255 7 118604383.87907                                  22569661.442 5  90878678.19005
E12  26348119.706 6 138460299.61706                                  26348119.477 4
E19  28452354.740 5 149518139.28905                                  28452355.929 4
E25  25952244.360 6 136379994.76306  25952245.568 4                  25952248.115 5 104498948.49305
E36  25266587.666 7 132776797.86007  25266587.898 4                  25266593.174 6 101738102.65506
G02  21457712.062 7 112761042.98307  21457709.389 4  87865733.27804
G05  20709184.986 7 108827499.29607  20709184.388 6  84800645.48806  20709184.446 6  84800663.49006
G06  23564189.936 6 123830664.53006  23564195.321 5  96491442.11705  23564194.709 6  96491443.12406
G09  24833469.065 6 130500776.30806  24833473.725 4 101688923.68904  24833474.731 5 101688933.70405
G11  20939150.624 7 110035991.78207  20939150.705 4  85742321.25104  20939151.014 6  85742322.23506
G12  22720072.456 6 119394811.76806  22720073.921 5  93034904.48805  22720075.453 5  93034910.50205
G13  24937318.478 4 131046475.55304
G20  20207393.224 7 106190572.57407  20207392.179 4  82745891.80004
G25  22082080.133 7 116042114.88207  22082083.694 6  90422441.18206  22082083.891 6  90422441.16206
G29  22744199.248 7 119521588.89807  22744199.575 6  93133692.64606  22744200.671 6  93133705.65706
R03  23410679.380 4                  23410687.475 5  97470550.78005
R04                                  20152231.392 6  83933339.39706
R05  20556713.831 5 109887418.98305  20556723.217 6  85468034.13206
R11  22915037.829 4                  22915047.134 6  95239725.22606
R19                                  20955384.787 6  87186693.73606
R20                                  20241645.418 6  84187549.02206
> 2022 06 16 19 45 30.0000000  0 30
C11  23023651.348 6 119890190.51106  23023652.231 6  92706727.50406
C14  22007479.612 7 114598722.85407  22007478.644 6  88614992.64406
C21  25533979.383 7 132962134.96307
C28  23068293.919 7 120122658.63307
C33  23491148.669 7 122324585.00307
C34  24901868.876 7 129670562.77107
C37  26430808.969 4
E02  25832819.044 6 135752355.19306                                  25832821.435 5 104018067.41605
E04  25591286.891 7 134483116.45207  25591284.575 5                  25591288.594 6 103045522.24906
E09  27361007.342 4 143783071.48204                                  27361016.428 3
E11  22569669.013 7 118604409.46807                                  22569666.432 5  90878697.77705
E12  26348446.443 6 138462015.77506                                  26348445.602 4
E19  28452536.498 5 149519095.52305                                  28452537.750 4
E25  25952652.740 6 136382141.72506  25952655.021 4                  25952656.818 5 104500593.58805
E36  25266242.953 7 132774984.79207  25266242.908 4                  25266248.220 6 101736713.44606
G02  21457833.569 7 112761682.53607  21457831.106 4  87866231.63004
G05  20708782.441 7 108825383.69607  20708781.767 6  84798996.97306  20708781.942 6  84799014.97906
G06  23564654.140 6 123833104.53106  23564659.579 5  96493343.41805  23564659.516 6  96493344.40706
G09  24833793.347 6 130502480.74306  24833797.981 4 101690251.83104  24833799.729 5 101690261.83605
G11  20939367.233 7 110037130.35407  20939367.396 4  85743208.44304  20939367.932 6  85743209.42406
G12  22720633.551 7 119397759.10607  22720634.755 5  93037201.11005  22720636.181 5  93037207.11205
G20  20207431.635 7 106190773.65807  20207430.411 4  82746048.48904
G25  22082259.463 7 116043057.49607  22082263.060 6  90423175.68306  22082263.288 6  90423175.68306
G29  22743586.774 7 119518369.10407  22743586.909 6  93131183.71406  22743587.991 6  93131196.70606
R03  23411348.796 4                  23411357.441 5  97473340.45605
R04                                  20152351.876 6  83933840.01606
R05  20556081.387 5 109884041.93905  20556091.931 6  85465407.53206
R11  22914942.279 4                  22914951.432 6  95239328.17606
R19                                  20955682.146 6  87187926.96806
R20                                  20241311.231 6  84186158.71906
> 2022 06 16 19 45 31.0000000  0 30
C11  23023953.710 6 119891764.83606  23023954.615 6  92707944.85306
C14  22007192.007 7 114597224.93707  22007190.721 6  88613834.34806
C21  25534474.906 7 132964715.67607
C28  23067856.022 7 120120378.77207
C33  23490589.618 7 122321672.98707
C34  24902314.661 7 129672884.67307
C37  26431120.087 4
E02  25832798.211 6 135752247.23606                                  25832800.893 5 104017984.68605
E04  25590937.975 7 134481283.35407  25590935.878 4                  25590939.647 6 103044117.66306
E09  27360383.202 4 143779793.78404                                  27360391.402 3
E11  22569673.936 6 118604435.35706                                  22569671.534 5  90878717.62305
E12  26348772.920 6 138463732.10906                                  26348772.057 4
E19  28452718.328 5 149520052.29605                                  28452719.951 4
E25  25953061.558 6 136384289.09906  25953063.857 4                  25953065.336 5 104502238.93305
E36  25265898.048 7 132773171.96607  25265897.981 4                  25265903.395 6 101735324.39406
G02  21457955.175 7 112762322.38707  21457952.851 4  87866730.20404
G05  20708379.884 7 108823268.81907  20708379.295 6  84797349.01806  20708379.491 6  84797367.03206
G06  23565118.768 6 123835544.73606  23565123.893 5  96495244.87605  23565123.402 6  96495245.89606
G09  24834117.790 6 130504185.85306  24834122.424 4 101691580.48604  24834124.789 5 101691590.48605
G11  20939584.071 7 110038269.33907  20939584.153 4  85744095.96204  20939584.506 6  85744096.94206
G12  22721194.623 7 119400706.91307  22721195.662 5  93039498.09705  22721196.716 5  93039504.08205
G20  20207469.921 7 106190975.41407  20207468.773 4  82746205.70404
G25  22082438.708 7 116044000.86507  22082442.568 6  90423910.77706  22082443.114 6  90423910.75506
G29  22742974.215 7 119515149.63507  22742974.301 6  93128675.03706  22742975.827 6  93128688.04206
R03  23412019.150 4                  23412028.756 5  97476130.56105
R04                                  20152472.529 6  83934341.44506
R05  20555450.410 5 109880665.61705  20555460.360 6  85462781.55106
R11  22914846.461 4                  22914855.592 6  95238931.92606
R19                                  20955978.368 6  87189160.55306
R20                                  20240976.329 6  84184768.73406
> 2022 06 16 19 45 32.0000000  0 30
C11  23024256.067 6 119893339.29906  23024256.799 6  92709162.35906
C14  22006904.678 7 114595727.46907  22006903.017 6  88612676.42506
C21  25534970.594 7 132967296.58307
C28  23067418.156 7 120118099.03307
C33  23490030.472 7 122318761.29807
C34  24902760.616 6 129675206.73606
C37  26431431.982 4
E02  25832777.596 6 135752139.72806                                  25832780.386 5 104017902.34405
E04  25590589.229 7 134479450.61207  25590587.024 5                  25590590.556 6 103042713.33506
E09  27359760.417 4 143776515.80804                                  27359767.942 3
E11  22569678.873 6 118604461.31006                                  22569676.672 5  90878737.52705
E12  26349099.635 6 138465448.44506                                  26349098.762 4
E19  28452900.301 5 149521009.48505                                  28452902.259 4
E25  25953470.260 6 136386436.69606  25953472.027 4                  25953473.734 5 104503884.51005
E36  25265553.335 7 132771359.16107  25265552.946 4                  25265558.154 6 101733935.36706
G02  21458076.964 7 112762962.36907  21458074.622 4  87867228.88904
G05  20707977.277 7 108821154.43007  20707976.916 6  84795701.44706  20707977.412 6  84795719.45706
G06  23565583.120 6 123837984.95506  23565588.214 5  96497146.34305  23565587.852 6  96497147.34006
G09  24834442.778 6 130505891.39206  24834447.014 4 101692909.47004  24834449.031 5 101692919.48205
G11  20939801.035 7 110039408.49407  20939800.942 4  85744983.61104  20939801.380 6  85744984.62106
G12  22721755.803 7 119403654.96507  22721756.631 5  93041795.28005  22721757.275 5  93041801.26905
G20  20207508.297 7 106191177.63107  20207507.229 4  82746363.27404
G25  22082618.445 7 116044944.79007  22082622.198 6  90424646.30106  22082622.775 6  90424646.28006
G29  22742361.777 7 119511930.30707  22742361.721 6  93126166.46606  22742362.910 6  93126179.48706
R03  23412689.737 4                  23412697.885 5  97478920.94605
R04                                  20152593.048 6  83934843.56106
R05  20554819.128 5 109877289.96005  20554828.474 6  85460156.01406
R11  22914750.630 4                  22914760.784 6  95238536.30806
R19                                  20956274.502 6  87190394.36906
R20                                  20240642.500 6  84183378.93106
> 2022 06 16 19 45 33.0000000  0 30
C11  23024558.452 6 119894913.98806  23024558.969 6  92710379.99906
C14  22006617.180 7 114594230.44707  22006615.205 6  88611518.84006
C21  25535466.376 7 132969877.68907
C28  23066980.349 7 120115819.36007
C33  23489471.202 7 122315849.84607
C34  24903206.562 7 129677528.86707
C37  26431743.091 4
E02  25832757.179 6 135752032.62606                                  25832759.784 5 104017820.21305
E04  25590240.505 7 134477618.11407  25590238.443 4                  25590241.796 6 103041309.23706
E09  27359136.344 3 143773237.98803                                  27359143.967 3
E11  22569683.921 6 118604487.36506                                  22569681.734 5  90878757.46805
E12  26349426.126 6 138467164.74306                                  26349425.544 4
E19  28453082.622 5 149521967.03605                                  28453084.732 4
E25  25953878.787 6 136388584.45406  25953881.015 4                  25953882.561 5 104505530.25305
E36  25265208.608 7 132769546.34007  25265207.897 4                  25265213.133 6 101732546.31406
G02  21458198.587 7 112763602.45207  21458196.399 4  87867727.66304
G05  20707575.166 7 108819040.47207  20707574.626 6  84794054.21006  20707575.096 6  84794072.22806
G06  23566047.735 6 123840425.16706  23566052.552 5  96499047.80605  23566052.055 6  96499048.79606
G09  24834767.280 6 130507597.42606  24834771.736 4 101694238.84904  24834773.165 5 101694248.85005
G11  20940017.948 7 110040547.83907  20940017.784 4  85745871.41304  20940018.044 6  85745872.40206
G12  22722317.059 7 119406603.22907  22722317.619 5  93044092.62405  22722318.191 5  93044098.61205
G20  20207546.726 7 106191380.28007  20207545.766 4  82746521.18404
G25  22082798.379 7 116045889.25707  22082801.939 6  90425382.24906  22082802.628 6  90425382.23706
G29  22741749.156 7 119508711.12807  22741749.157 6  93123658.01806  22741750.141 6  93123671.01506
R03  23413358.486 4                  23413368.826 5  97481711.51305
R04                                  20152714.108 6  83935346.29306
R05  20554187.199 5 109873914.75905  20554197.037 6  85457530.86006
R11  22914656.154 4                  22914665.883 6  95238141.27206
R19                                  20956570.393 6  87191628.36406
R20                                  20240308.573 6  84181989.25906
> 2022 06 16 19 45 34.0000000  0 30
C11  23024861.020 6 119896488.80306  23024861.326 6  92711597.74206
C14  22006329.551 7 114592733.85707  22006328.007 6  88610361.59006
C21  25535961.980 7 132972458.77907
C28  23066542.617 7 120113539.60407
C33  23488912.142 7 122312938.71307
C34  24903652.584 7 129679851.09407
C37  26432054.048 4
E02  25832736.909 7 135751925.78307                                  25832739.756 5 104017738.37305
E04  25589891.848 7 134475785.93007  25589889.773 4                  25589893.274 6 103039905.37306
E09  27358510.737 4 143769960.02504                                  27358519.058 3
E11  22569688.764 7 118604513.33107                                  22569686.644 5  90878777.39505
E12  26349752.742 6 138468880.92606                                  26349752.067 4
E19  28453265.458 5 149522924.75405                                  28453267.291 4
E25  25954287.708 6 136390732.45206  25954289.667 4                  25954291.105 5 104507176.07905
E36  25264863.824 7 132767733.41207  25264862.795 4                  25264867.816 6 101731157.17406
G02  21458320.381 7 112764242.52907  21458318.178 4  87868226.42404
G05  20707173.109 7 108816926.98207  20707172.426 6  84792407.33606  20707173.070 6  84792425.35406
G06  23566512.381 6 123842865.25906  23566516.872 5  96500949.17505  23566516.787 6  96500950.16506
G09  24835092.161 6 130509303.66606  24835096.432 4 101695568.38704  24835097.358 5 101695578.40705
G11  20940234.581 7 110041687.23407  20940234.609 4  85746759.25304  20940234.944 6  85746760.25006
G12  22722878.247 7 119409551.80207  22722878.741 5  93046390.20805  22722879.371 5  93046396.22005
G20  20207585.320 7 106191583.28107  20207584.374 4  82746679.36604
G25  22082978.232 7 116046834.22107  22082981.743 6  90426118.58106  22082982.499 6  90426118.56506
G29  22741136.334 7 119505491.89407  22741136.608 6  93121149.52506  22741137.337 6  93121162.54206
R03  23414028.380 4                  23414039.985 5  97484502.10805
R04                                  20152834.672 6  83935849.57806
R05  20553556.239 5 109870540.18905  20553565.670 6  85454906.19706
R11  22914559.643 4                  22914570.633 6  95237746.65906
R19                                  20956867.179 6  87192862.44406
R20                                  20239974.748 6  84180599.58106
> 2022 06 16 19 45 35.0000000  0 30
C11  23025163.342 6 119898064.30306  23025163.975 6  92712816.00606
C14  22006042.500 7 114591238.99007  22006041.228 6  88609205.62506
C21  25536457.194 7 132975037.98607
C28  23066104.416 7 120111258.79307
C33  23488353.462 7 122310030.13307
C34  24904098.557 7 129682174.45607
C37  26432365.188 4
E02  25832716.706 6 135751818.48806                                  25832719.348 5 104017656.23505
E04  25589543.366 7 134473954.98407  25589541.411 4                  25589544.831 5 103038502.47205
E09  27357887.308 4 143766684.80804                                  27357895.991 3
E11  22569693.517 7 118604538.53607                                  22569691.433 5  90878796.69105
E12  26350078.938 6 138470596.64806                                  26350079.027 5
E19  28453447.135 5 149523881.00005                                  28453449.608 4
E25  25954697.036 7 136392882.24707  25954698.396 4                  25954700.255 5 104508823.26605
E36  25264518.543 7 132765919.79407  25264518.029 4                  25264522.348 5 101729767.51905
G02  21458442.237 7 112764881.90507  21458439.792 4  87868724.64904
G05  20706771.526 7 108814815.29507  20706770.570 6  84790761.86906  20706771.268 6  84790779.87706
G06  23566976.696 6 123845304.73006  23566981.071 5  96502850.05705  23566980.597 5  96502851.07105
G09  24835416.693 6 130511008.07306  24835420.719 4 101696896.49604  24835420.469 5 101696906.37705
G11  20940451.200 7 110042825.96107  20940451.276 4  85747646.57704  20940451.447 6  85747647.59106
G12  22723439.856 7 119412502.78907  22723440.273 5  93048689.67805  22723441.034 5  93048695.70005
G20  20207623.937 7 106191786.67807  20207623.080 4  82746837.85904
G25  22083158.407 7 116047779.97407  22083161.722 6  90426855.53206  22083161.900 6  90426855.51906
G29  22740523.086 7 119502271.22207  22740523.776 6  93118639.91906  22740524.912 6  93118652.89506
R03                                  23414711.426 5  97487290.97805
R04                                  20152955.165 6  83936352.95706
R05  20552925.423 5 109867168.16605  20552934.483 6  85452283.54006
R11  22914464.799 4                  22914476.032 6  95237351.07806
R19                                  20957163.532 6  87194096.42406
R20                                  20239640.597 6  84179208.82806
> 2022 06 16 19 45 36.0000000  0 30
C11  23025465.771 6 119899640.62106  23025466.789 6  92714034.92006
C14  22005755.811 7 114589746.07107  22005754.843 6  88608051.18806
C21  25536951.992 6 132977613.91906
C28  23065665.938 7 120108975.87707
C33  23487795.591 7 122307125.09207
C34  24904544.905 6 129684499.37906
C37  26432676.256 4
E02  25832696.383 7 135751709.94307                                  25832698.725 5 104017572.99205
E04  25589195.245 7 134472125.46007  25589193.407 4                  25589196.984 5 103037100.64605
E09  27357265.954 4 143763414.03904                                  27357274.869 4
E11  22569697.899 6 118604562.15406                                  22569695.538 5  90878814.82105
E12  26350404.687 6 138472311.72506                                  26350405.670 4
E19  28453627.977 5 149524834.44705                                  28453630.596 4
E25  25955106.606 6 136395034.42006  25955107.929 4                  25955110.129 5 104510472.38805
E36  25264173.128 7 132764104.69507  25264172.730 4                  25264177.013 5 101728376.72305
G02  21458563.803 7 112765519.97707  21458561.233 4  87869221.85204
G05  20706369.979 7 108812705.85907  20706369.153 6  84789118.14906  20706369.814 6  84789136.18106
G06  23567440.493 6 123847742.97906  23567445.055 5  96504749.97905  23567445.525 6  96504751.03706
G09  24835740.551 6 130512709.15306  24835744.353 4 101698221.98504  24835744.420 5 101698231.99405
G11  20940667.425 7 110043963.25407  20940667.730 4  85748532.78304  20940667.931 7  85748533.84807
G12  22724002.377 7 119415457.27607  22724002.513 5  93050991.87905  22724003.152 5  93050997.88805
G20  20207662.559 7 106191990.05607  20207661.830 4  82746996.33404
G25  22083338.877 7 116048726.47107  22083341.830 6  90427593.06206  22083342.509 6  90427593.05706
G29  22739909.812 7 119499047.87507  22739910.422 6  93116128.22406  22739911.191 6  93116141.21006
R03  23415370.524 4                  23415379.719 5  97490076.76305
R04                                  20153076.243 6  83936855.88606
R05  20552296.284 5 109863799.67705  20552305.026 6  85449663.61206
R11  22914369.254 4                  22914380.258 6  95236953.40006
R19                                  20957460.152 6  87195329.93406
R20                                  20239305.932 6  84177816.01606
> 2022 06 16 19 45 37.0000000  0 30
C11  23025768.370 6 119901216.53406  23025769.424 6  92715253.56306
C14  22005469.153 7 114588254.21107  22005468.762 6  88606897.62806
C21  25537446.075 6 132980186.59906
C28  23065227.142 7 120106691.27807
C33  23487238.172 7 122304222.28707
C34  24904991.365 6 129686824.69106
C37  26432986.216 4
E02  25832675.670 7 135751600.49607                                  25832677.771 5 104017489.17305
E04  25588847.344 7 134470296.33007  25588845.327 4                  25588849.118 5 103035699.04105
E09  27356644.751 4 143760145.54004                                  27356653.385 4
E11  22569701.982 6 118604584.00206                                  22569699.482 5  90878831.55905
E12  26350730.852 6 138474024.96306                                  26350732.112 5
E19  28453808.509 5 149525785.10205                                  28453811.487 4
E25  25955516.546 6 136397188.41206  25955517.897 4                  25955520.615 5 104512122.85005
E36  25263827.539 7 132762288.38307  25263827.288 4                  25263831.299 6 101726985.00106
G02  21458684.948 7 112766156.36907  21458682.360 4  87869717.73804
G05  20705968.758 7 108810597.85807  20705968.021 6  84787475.55106  20705968.849 6  84787493.55306
G06  23567904.307 6 123850179.45806  23567908.700 5  96506648.52705  23567909.424 6  96506649.46306
G09  24836063.496 6 130514406.95906  24836067.410 4 101699544.95204  24836067.173 5 101699555.03405
G11  20940883.637 7 110045098.87407  20940883.844 4  85749417.68104  20940884.072 7  85749418.66507
G12  22724565.028 7 119418414.11907  22724565.213 5  93053295.91705  22724566.362 5  93053301.90205
G20  20207701.220 7 106192192.97207  20207700.457 4  82747154.45004
G25  22083519.177 7 116049673.54307  22083522.054 6  90428331.03806  22083522.523 6  90428331.04706
G29  22739296.082 7 119495822.48407  22739296.660 6  93113614.93306  22739297.291 6  93113627.87406
R03  23416036.787 4                  23416047.882 5  97492859.60805
R04                                  20153196.985 6  83937358.12006
R05  20551665.740 5 109860433.21305  20551675.220 6  85447045.17406
R11  22914273.088 5                  22914283.837 5  95236554.12605
R19                                  20957756.612 6  87196562.37806
R20                                  20238970.113 6  84176421.43806
> 2022 06 16 19 45 38.0000000  0 30
C11  23026070.688 7 119902791.04407  23026071.799 6  92716471.09606
C14  22005182.696 7 114586762.84607  22005182.556 7  88605744.42307
C21  25537939.582 6 132982755.60306
C28  23064788.440 7 120104406.89907
C33  23486681.200 7 122301321.56907
C34  24905437.687 7 129689148.43607
C37  26433296.309 5
E02  25832654.949 7 135751492.56107                                  25832657.059 5 104017406.48305
E04  25588499.161 7 134468466.04407  25588497.390 5                  25588500.869 5 103034296.63005
E09  27356023.732 4 143756878.00304                                  27356032.402 3
E11  22569705.653 6 118604604.48606                                  22569703.081 5  90878847.27005
E12  26351056.466 6 138475735.40906                                  26351057.561 5
E19  28453989.306 5 149526732.21205                                  28453992.006 4
E25  25955927.014 6 136399345.74006  25955927.681 4                  25955931.704 5 104513775.89405
E36  25263482.160 7 132760473.11007  25263482.048 5                  25263485.548 6 101725594.12406
G02  21458805.686 7 112766790.96607  21458803.103 4  87870212.22404
G05  20705567.886 7 108808491.97107  20705567.288 6  84785834.60006  20705568.066 6  84785852.63906
G06  23568367.040 7 123852612.56607  23568371.704 5  96508544.43405  23568372.787 6  96508545.44206
G09  24836385.685 6 130516101.17206  24836389.805 4 101700865.13104  24836388.977 4 101700875.13504
G11  20941099.401 7 110046232.45507  20941099.604 4  85750300.98304  20941100.020 6  85750301.95906
G12  22725128.167 7 119421374.25907  22725128.539 5  93055602.51705  22725130.082 5  93055608.52705
G20  20207739.837 7 106192395.54907  20207738.984 4  82747312.30304
G25  22083700.108 7 116050623.35707  22083702.819 6  90429071.15706  22083704.112 6  90429071.16406
G29  22738682.128 7 119492597.07007  22738682.876 5  93111101.61005  22738683.408 5  93111114.61405
R03  23416703.921 3                  23416716.152 5  97495639.68005
R04                                  20153317.093 6  83937859.06006
R05  20551035.505 5 109857068.11505  20551045.562 6  85444427.93606
R11  22914177.055 5                  22914187.621 5  95236155.17005
R19                                  20958052.437 6  87197793.01106
R20                                  20238633.896 6  84175026.13306
> 2022 06 16 19 45 39.0000000  0 30
C11  23026372.285 7 119904361.95107  23026373.335 6  92717685.75306
C14  22004895.931 7 114585270.60607  22004896.234 6  88604590.47506
C21  25538432.676 6 132985321.11306
C28  23064350.366 7 120102126.13607
C33  23486124.219 7 122298421.76307
C34  24905883.328 6 129691467.57706
C37  26433608.533 5
E02  25832635.374 7 135751390.09807                                  25832637.574 5 104017327.95405
E04  25588150.303 7 134466632.12507  25588148.247 4                  25588151.908 5 103032891.48705
E09  27355402.253 6 143753609.81406                                  27355410.421 4
E11  22569709.513 7 118604624.56707                                  22569706.899 5  90878862.70105
E12  26351380.914 6 138477440.51806                                  26351382.062 5
E19  28454169.175 5 149527675.59305                                  28454171.613 4
E25  25956338.406 6 136401507.82906  25956339.559 4                  25956343.341 5 104515432.56305
E36  25263137.482 7 132758662.40407  25263137.392 5                  25263140.882 6 101724206.69406
G02  21458926.062 7 112767423.94207  21458923.564 4  87870705.45104
G05  20705167.550 7 108806388.51007  20705167.032 6  84784195.55106  20705167.700 6  84784213.55906
G06  23568829.075 6 123855040.45506  23568833.700 5  96510436.29505  23568834.891 5  96510437.32605
G09  24836706.934 5 130517792.22305  24836711.596 3 101702182.85203  24836710.869 4 101702192.97604
G11  20941315.003 7 110047363.92007  20941314.947 4  85751182.63504  20941315.450 6  85751183.65206
G12  22725692.085 7 119424337.97007  22725692.564 5  93057911.90305  22725693.918 5  93057917.84805
G20  20207778.386 7 106192597.93407  20207777.520 4  82747470.01204
G25  22083881.822 7 116051578.75207  22083884.637 6  90429815.62406  22083885.449 6  90429815.64806
G29  22738069.134 7 119489375.74507  22738069.883 5  93108591.49005  22738069.872 5  93108604.50205
R03  23417368.697 4                  23417382.825 5  97498417.83405
R04                                  20153436.609 6  83938358.20406
R05  20550406.447 5 109853702.40205  20550416.130 6  85441810.12706
R11  22914081.856 5                  22914092.628 6  95235759.89406
R19                                  20958347.981 6  87199020.47906
R20                                  20238298.634 6  84173632.33806
> 2022 06 16 19 45 40.0000000  0 30
C11  23026673.113 6 119905928.50206  23026674.053 6  92718897.18006
C14  22004608.905 7 114583776.30307  22004609.713 6  88603435.06806
C21  25538925.300 6 132987885.68306
C28  23063913.491 7 120099851.56407
C33  23485567.156 7 122295520.56607
C34  24906327.722 6 129693780.83306
C37  26433922.741 5
E02  25832617.277 7 135751295.56907                                  25832619.289 5 104017255.55005
E04  25587800.403 7 134464793.36907  25587798.530 5                  25587801.860 6 103031482.41106
E09  27354779.986 6 143750338.35206                                  27354787.430 5
E11  22569713.548 6 118604645.68006                                  22569711.377 5  90878878.85605
E12  26351704.460 6 138479140.92706                                  26351705.602 4
E19  28454348.433 5 149528617.57105                                  28454351.019 3
E25  25956750.646 6 136403674.11406  25956752.039 4                  25956755.496 5 104517092.39505
E36  25262794.114 7 132756858.41807  25262794.284 5                  25262797.455 5 101722824.48205
G02  21459046.492 7 112768056.46207  21459043.914 4  87871198.34004
G05  20704767.675 7 108804286.63807  20704767.076 6  84782557.73506  20704768.062 6  84782575.78206
G06  23569290.257 6 123857463.62906  23569294.802 5  96512324.50605  23569296.054 5  96512325.61505
G09  24837028.785 5 130519483.10505  24837033.375 3 101703500.44003  24837032.643 5 101703510.45805
G11  20941530.219 7 110048494.59707  20941530.131 4  85752063.69604  20941530.398 6  85752064.69206
G12  22726256.296 7 119427303.54107  22726256.928 5  93060222.73605  22726258.541 6  93060228.75706
G20  20207817.126 7 106192800.65807  20207816.139 4  82747627.99404
G25  22084064.781 7 116052540.85907  22084067.729 6  90430565.33106  22084069.071 6  90430565.35806
G29  22737457.541 7 119486161.64307  22737458.263 6  93106087.01806  22737458.725 5  93106100.04005
R03  23418033.864 3                  23418050.392 5  97501196.85205
R04                                  20153556.368 6  83938856.30706
R05  20549775.903 5 109850333.84805  20549785.905 6  85439190.16906
R11  22913989.074 5                  22913999.037 5  95235371.49205
R19                                  20958641.418 6  87200245.14806
R20                                  20237964.129 6  84172242.16206
> 2022 06 16 19 45 41.0000000  0 30
C11  23026973.715 6 119907492.26206  23026974.208 6  92720106.40306
C14  22004321.669 7 114582280.23707  22004322.363 6  88602278.20106
C21  25539417.952 6 132990451.87506
C28  23063477.542 7 120097582.33607
C33  23485009.537 7 122292617.09107
C34  24906771.133 7 129696089.67307
C37  26434237.411 6
E02  25832600.341 6 135751207.30506                                  25832602.542 5 104017187.97005
E04  25587449.815 6 134462951.08606  25587447.839 5                  25587451.353 5 103030070.96205
E09  27354156.865 6 143747062.10106                                  27354163.719 5
E11  22569717.810 6 118604668.55706                                  22569716.043 5  90878896.40405
E12  26352027.498 6 138480838.76206                                  26352028.667 5
E19  28454527.927 5 149529560.56005                                  28454530.224 4
E25  25957163.226 6 136405842.08106  25957164.479 4                  25957167.888 5 104518753.60905
E36  25262451.780 7 132755059.72507  25262452.170 4                  25262454.851 5 101721446.24305
G02  21459167.016 7 112768689.77907  21459164.419 4  87871691.85504
G05  20704367.783 7 108802185.26307  20704367.232 6  84780920.32206  20704368.733 6  84780938.35506
G06  23569751.018 6 123859884.87806  23569755.572 5  96514211.24105  23569756.315 5  96514212.30005
G09  24837350.983 5 130521176.26005  24837355.591 3 101704819.77603  24837355.801 5 101704829.74905
G11  20941745.489 7 110049625.89607  20941745.442 4  85752945.23904  20941745.685 6  85752946.23706
G12  22726820.564 7 119430268.84507  22726821.231 5  93062533.37805  22726823.162 6  93062539.39106
G20  20207855.897 7 106193004.23907  20207854.858 4  82747786.64704
G25  22084248.562 7 116053507.47107  22084251.676 6  90431318.55006  22084253.223 6  90431318.53506
G29  22736847.078 7 119482953.90807  22736847.849 6  93103587.49906  22736848.499 5  93103600.47905
R03  23418703.852 4                  23418718.120 5  97503978.45705
R04                                  20153676.621 6  83939354.73506
R05  20549146.437 5 109846962.55605  20549155.069 6  85436568.04106
R11  22913898.260 5                  22913906.649 6  95234988.94706
R19                                  20958936.322 6  87201468.63006
R20                                  20237631.075 6  84170855.69006
> 2022 06 16 19 45 42.0000000  0 30
C11  23027274.053 6 119909055.82706  23027274.052 5  92721315.39205
C14  22004034.371 6 114580783.65006  22004034.859 6  88601121.01706
C21  25539911.241 6 132993021.02006
C28  23063042.214 7 120095315.52907
C33  23484451.507 7 122289711.80707
C34  24907214.328 6 129698397.58206
C37  26434552.906 6
E02  25832584.019 6 135751121.53406                                  25832586.194 5 104017122.23405
E04  25587098.834 6 134461108.34206  25587096.911 5                  25587100.766 5 103028659.10305
E09  27353533.008 6 143743782.97506                                  27353539.579 5
E11  22569722.513 6 118604693.20806                                  22569721.073 5  90878915.31405
E12  26352350.732 6 138482537.26506                                  26352351.733 4
E19  28454708.170 5 149530506.50205                                  28454710.417 4
E25  25957575.606 6 136408009.32006  25957576.834 4                  25957580.193 5 104520414.28005
E36  25262109.719 7 132753262.91607  25262110.529 5                  25262112.785 5 101720069.47905
G02  21459287.816 7 112769324.59307  21459285.204 4  87872186.52404
G05  20703967.654 7 108800083.54307  20703967.323 6  84779282.63806  20703968.923 6  84779300.64606
G06  23570211.785 6 123862306.79606  23570216.446 5  96516098.46405  23570217.017 5  96516099.45605
G09  24837673.976 5 130522872.68505  24837678.378 3 101706141.63003  24837680.101 5 101706151.70005
G11  20941961.047 7 110050758.84007  20941961.026 4  85753828.05704  20941961.149 6  85753829.06206
G12  22727384.218 7 119433232.69007  22727385.276 5  93064842.87805  22727386.370 6  93064848.87006
G20  20207894.883 7 106193208.94007  20207893.770 4  82747946.17004
G25  22084432.639 7 116054475.31607  22084435.830 6  90432072.72206  22084437.224 5  90432072.76505
G29  22736237.248 7 119479749.09507  22736237.977 6  93101090.24706  22736238.574 5  93101103.28805
R03                                  23419386.911 5  97506763.10505
R04                                  20153796.579 6  83939854.76006
R05  20548514.777 5 109843589.90105  20548524.147 6  85433944.82506
R11  22913806.659 5                  22913816.014 6  95234609.71806
R19                                  20959230.233 5  87202692.91305
R20                                  20237298.129 6  84169471.45306
> 2022 06 16 19 45 43.0000000  0 30
C11  23027574.096 6 119910618.53106  23027574.322 5  92722523.77705
C14  22003746.862 7 114579286.54007  22003747.250 6  88599963.33306
C21  25540404.286 6 132995590.67806
C28  23062607.130 7 120093049.89907
C33  23483893.300 7 122286805.40107
C34  24907657.097 7 129700703.97307
C37  26434869.077 6
E02  25832567.992 6 135751037.34706                                  25832570.308 5 104017057.72705
E04  25586747.823 7 134459264.49507  25586746.443 4                  25586749.721 5 103027246.23505
E09  27352908.537 6 143740501.80706                                  27352914.942 5
E11  22569727.366 6 118604718.04506                                  22569725.965 5  90878934.34805
E12  26352673.937 6 138484234.84806                                  26352674.929 4
E19  28454888.210 5 149531452.87805                                  28454890.802 4
E25  25957987.934 6 136410176.37506  25957988.854 4                  25957992.337 5 104522074.68305
E36  25261767.934 7 132751467.16507  25261768.682 4                  25261770.989 5 101718693.46505
G02  21459408.802 7 112769959.50307  21459406.050 4  87872681.27004
G05  20703567.748 7 108797981.66407  20703567.365 6  84777644.82106  20703568.823 6  84777662.81206
G06  23570672.693 6 123864728.09106  23570677.243 5  96517985.17805  23570678.050 5  96517986.14505
G09  24837997.304 5 130524570.16905  24838001.370 3 101707464.34703  24838002.380 4 101707474.42104
G11  20942176.716 7 110051891.86507  20942176.646 4  85754710.94504  20942176.864 6  85754711.95706
G12  22727947.949 7 119436195.74907  22727949.153 5  93067151.75405  22727949.979 6  93067157.80806
G20  20207933.782 7 106193413.83207  20207932.746 4  82748105.83404
G25  22084617.012 7 116055444.23707  22084620.224 5  90432827.72805  22084620.387 5  90432827.77205
G29  22735627.531 7 119476545.86907  22735628.425 5  93098594.24605  22735628.502 5  93098607.25405
R03  23420046.291 3                  23420055.631 5  97509548.33705
R04                                  20153917.160 6  83940355.18106
R05  20547884.126 5 109840216.28105  20547893.744 7  85431320.91907
R11  22913715.586 5                  22913725.125 5  95234232.42805
R19                                  20959523.774 5  87203916.86805
R20                                  20236965.620 6  84168088.17006
> 2022 06 16 19 45 44.0000000  0 30
C11  23027873.794 6 119912179.28306  23027873.916 5  92723730.65505
C14  22003459.121 7 114577788.70707  22003459.424 6  88598805.09606
C21  25540897.107 6 132998158.86106
C28  23062172.309 7 120090785.72707
C33  23483335.133 7 122283898.89907
C34  24908099.686 6 129703007.96606
C37  26435185.669 6
E02  25832552.504 6 135750955.55106                                  25832554.583 5 104016995.05205
E04  25586396.457 6 134457418.76306  25586395.246 4                  25586398.401 5 103025831.93905
E09  27352283.689 6 143737219.53506                                  27352290.176 5
E11  22569732.138 6 118604742.46906                                  22569730.762 5  90878953.02305
E12  26352996.444 5 138485929.97805                                  26352997.816 4
E19  28455067.659 5 149532397.71705                                  28455071.080 4
E25  25958400.815 6 136412345.10106  25958401.808 4                  25958404.882 5 104523736.50005
E36  25261426.598 7 132749673.04507  25261427.180 4                  25261429.753 5 101717318.86805
G02  21459529.478 7 112770593.41207  21459526.662 4  87873175.23504
G05  20703167.799 7 108795880.53607  20703167.532 6  84776007.58606  20703168.720 6  84776025.63306
G06  23571133.077 6 123867146.74806  23571137.539 5  96519869.84405  23571138.511 5  96519870.82105
G09  24838320.079 5 130526266.58405  24838324.180 3 101708786.25803
G11  20942392.229 7 110053023.79907  20942392.012 4  85755592.97904  20942392.483 6  85755594.00806
G12  22728511.979 7 119439159.88007  22728513.231 5  93069461.46605  22728513.895 6  93069467.45406
G20  20207972.588 7 106193618.48007  20207971.732 4  82748265.30604
G25  22084801.987 7 116056415.50007  22084805.058 5  90433584.55805  22084805.016 5  90433584.55605
G29  22735018.262 7 119473344.27707  22735019.167 5  93096099.50705  22735019.206 5  93096112.52705
R03  23420715.532 4                  23420724.415 5  97512332.87805
R04                                  20154037.223 6  83940854.91506
R05  20547252.056 5 109836842.11305  20547262.818 7  85428696.53307
R11  22913625.612 5                  22913634.273 6  95233857.00506
R19                                  20959818.555 5  87205139.23305
R20                                  20236633.247 6  84166705.42506
> 2022 06 16 19 45 45.0000000  0 31
C11  23028173.204 6 119913737.90406  23028173.135 5  92724935.86705
C14  22003171.164 7 114576290.27107  22003171.385 6  88597646.41506
C21  25541390.127 6 133000724.96506
C28  23061738.038 7 120088522.95507
C33  23482777.004 7 122280992.54407
C34  24908541.502 6 129705309.36306
C37  26435502.398 6 137656597.56316
E02  25832537.403 6 135750876.26406                                  25832539.473 5 104016934.28905
E04  25586044.844 6 134455570.96906  25586043.435 4                  25586046.811 5 103024416.08705
E09  27351658.820 6 143733936.38306                                  27351665.272 5
E11  22569736.539 6 118604766.32606                                  22569735.322 5  90878971.34205
E12  26353318.401 5 138487622.08105                                  26353319.639 4
E19  28455246.784 5 149533340.48005                                  28455250.562 4
E25  25958813.782 6 136414515.97706  25958814.399 4                  25958818.021 6 104525399.85206
E36  25261085.594 7 132747880.86107  25261085.544 4                  25261088.982 5 101715945.58805
G02  21459649.830 7 112771226.18107  21459647.090 4  87873668.30404
G05  20702768.203 7 108793780.49007  20702767.891 6  84774371.19106  20702769.192 6  84774389.20706
G06  23571592.967 5 123869562.64305  23571597.265 4  96521752.35804  23571598.450 4  96521753.36904
G09  24838643.684 4 130527961.83604  24838646.691 3 101710107.25503  24838649.029 3
G11  20942607.510 7 110054154.40007  20942607.198 4  85756473.96604  20942608.079 6  85756474.96606
G12  22729076.422 7 119442125.49707  22729077.590 6  93071772.33606  22729078.596 6  93071778.32806
G13  24926158.560 4
G20  20208011.470 7 106193822.88107  20208010.685 4  82748424.58304
G25  22084987.001 7 116057389.47507  22084990.383 5  90434343.50305  22084990.817 6  90434343.49606
G29  22734409.068 7 119470144.36607  22734410.250 5  93093606.07305  22734410.201 5  93093619.08005
R03  23421381.963 4                  23421393.921 5  97515116.40205
R04                                  20154156.596 6  83941353.75106
R05  20546620.932 5 109833467.43505  20546631.002 7  85426071.81307
R11  22913534.148 5                  22913545.272 6  95233483.40806
R19                                  20960111.739 5  87206359.86705
R20                                  20236300.836 6  84165323.17706
> 2022 06 16 19 45 46.0000000  0 30
C11  23028472.186 7 119915294.62607  23028472.050 6  92726139.68006
C14  22002883.406 7 114574791.79007  22002883.408 6  88596487.69506
C21  25541882.882 4 133003290.84004
C28  23061304.018 7 120086262.38607
C33  23482219.098 7 122278087.13207
C34  24908983.321 3
C37  26435820.057 6 137658251.22706
E02  25832522.732 6 135750800.42106                                  25832524.895 5 104016876.21305
E04  25585692.892 6 134453721.40806  25585691.577 4                  25585694.930 5 103022998.85905
E09  27351034.041 6 143730653.06206                                  27351040.519 5
E11  22569741.100 6 118604790.00106                                  22569739.588 5  90878989.46505
E12  26353640.438 4 138489311.94904                                  26353641.452 3
E19                                                                  28455429.834 3
E25  25959227.550 6 136416689.98406  25959228.168 4                  25959231.869 5 104527065.70305
E36  25260745.165 7 132746091.41107  25260745.129 4                  25260748.593 5 101714574.44205
G02  21459769.929 7 112771858.13807  21459767.377 4  87874160.73704
G05  20702368.793 7 108791682.28907  20702368.616 6  84772736.23306  20702369.496 6  84772754.23406
G06  23572052.108 4                                                  23572058.500 4  96523634.43304
G11  20942822.438 7 110055283.97907  20942822.194 4  85757354.16104  20942822.766 6  85757355.12206
G12  22729641.380 7 119445093.59907  22729642.432 6  93074085.14206  22729643.724 6  93074091.12906
G13  24925461.488 3
G20  20208050.365 7 106194027.50807  20208049.641 4  82748584.03504
G25  22085172.819 7 116058367.09907  22085176.416 5  90435105.28905  22085176.380 5  90435105.29105
G29  22733800.413 7 119466946.87307  22733801.756 5  93091114.52505  22733801.479 5  93091127.54905
R03                                  23422063.341 3
R04                                  20154275.854 6  83941851.93806
R05  20545990.267 5 109830092.98805  20545999.649 7  85423447.25507
R11  22913445.869 5                  22913456.198 6
R19                                  20960404.304 5  87207578.85105
R20                                  20235969.033 6  84163941.84506
> 2022 06 16 19 45 47.0000000  0 30
C11  23028771.236 6                  23028771.089 5
C14  22002595.987 6 114573293.44806  22002595.611 6  88595328.94406
C21  25542375.855 4
C28  23060870.337 7 120084003.08807
C33  23481661.193 7 122275182.22407
C34  24909425.103 4
C37  26436138.161 6 137659907.67106
E02  25832508.813 6 135750726.93806                                  25832511.004 5 104016819.89705
E04  25585341.084 6 134451872.23006  25585339.728 4                  25585343.057 5 103021580.43705
E09  27350409.506 5 143727370.46605                                  27350415.717 3
E11  22569745.590 6 118604813.23806                                  22569743.828 5  90879007.27205
E12  26353961.521 4 138490999.75004                                  26353964.308 3
E24  28714195.232 3
E25  25959641.735 6 136418866.16706  25959642.433 4                  25959646.048 5 104528733.11205
E36  25260404.930 7 132744303.66007  25260405.164 5                  25260408.466 5 101713204.59505
G02  21459889.993 6
G05  20701969.805 7 108789585.31107  20701969.571 6  84771102.22506  20701970.314 6  84771120.17506
G06  23572511.031 5                                                  23572514.551 4  96525513.26204
G11  20943036.882 6                                                  20943037.378 5  85758235.53205
G12  22730206.531 7 119448063.39507  22730207.599 6  93076399.26206  22730208.649 6  93076405.25806
G13  24924759.817 5
G20  20208089.386 7 106194231.96407  20208088.581 4  82748743.35004
G25  22085359.367 6 116059347.33306  22085362.934 5  90435869.10605  22085363.388 6  90435869.15506
G29  22733192.307 7 119463750.88407  22733193.560 5  93088624.14805  22733193.549 5  93088637.16805
R03                                  23422731.589 4
R04                                  20154395.728 5  83942350.43705
R05                                  20545368.338 6  85420823.54506
R11  22913356.282 4                  22913366.890 6
R19                                  20960696.377 5
R20                                  20235636.880 6  84162560.87506
> 2022 06 16 19 45 48.0000000  0 31
C11  23029069.370 6                  23029069.744 5
C14  22002308.932 6                  22002308.180 5
C21  25542868.686 4
C28  23060437.228 6
C33  23481103.431 6
C34  24909865.675 6
C37  26436456.932 6 137661567.04506
E02  25832495.454 6 135750656.01206                                  25832497.334 5 104016765.53605
E04  25584988.456 6 134450021.10906  25584987.467 4                  25584990.635 5 103020160.56105
E09  27349787.287 5                                                  27349791.004 4
E11  22569749.827 5 118604835.68205                                  22569748.430 4  90879026.05104
E12  26354282.398 6 138492684.18806                                  26354284.467 4
E19  28455782.232 4
E24  28714732.068 3
E25  25960056.149 6 136421044.46906  25960057.181 4                  25960060.487 5 104530402.16805
E36  25260065.317 6 132742518.42706  25260065.016 4                  25260068.587 5 101711836.76705
G02  21460010.259 6
G05  20701570.704 6                  20701570.566 5                  20701571.940 6  84769487.99206
G06  23572968.764 6 123876796.95806  23572973.458 4  96527385.38114  23572972.885 5  96527389.44605
G11  20943251.297 6                  20943251.438 3                  20943252.637 5  85759114.99305
G12  22730772.287 6 119451034.89506  22730773.076 6  93078714.70906  22730775.324 4  93078721.91204
G13  24924058.627 5
G20  20208128.240 6                  20208127.406 4
G25  22085546.489 6 116060330.40106  22085550.023 5  90436635.12805
G29  22732584.580 6 119460556.92206  22732585.741 5  93086135.34905
R03                                  23423402.583 3
R04                                  20154514.618 4
R05  20544727.839 3
R11  22913270.239 4                  22913279.083 6
R19                                  20960990.641 5
R20                                  20235306.004 6  84161181.63906
> 2022 06 16 19 45 49.0000000  0 29
C11  23029367.062 7                  23029367.788 5
C14  22002020.940 7                  22002020.757 6
C21  25543361.669 4
C28  23060004.433 6
C33  23480546.384 7
C34  24910305.685 6
C37  26436775.828 6 137663229.04906
E02  25832482.695 6 135750588.74006                                  25832484.629 4 104016713.19704
E04  25584635.393 7 134448166.89207  25584634.307 4                  25584637.425 5 103018739.85505
E09  27349160.169 6 143720811.62816                                  27349166.122 5
E11  22569754.128 6 118604856.98706                                  22569753.316 5  90879047.33805
E12  26354602.145 6 138494366.69806                                  26354603.736 4
E19  28455961.629 4                                                  28455963.893 3
E25  25960471.240 5 136423225.62005  25960471.848 3                  25960473.908 4
E36  25259725.942 6 132740734.75006  25259725.459 4                  25259729.019 5 101710469.89405
G02  21460130.237 7                  21460127.892 4
G05  20701171.890 7                  20701171.642 6                  20701173.748 6  84767857.55006
G06  23573426.246 6 123879203.01506  23573431.287 4  96529260.22504  23573431.210 5  96529264.19305
G11  20943466.080 7 110058667.78307  20943465.958 4  85759992.04514  20943466.553 6  85759993.09306
G12  22731338.357 5                  22731338.891 4                  22731340.366 4  93081038.77404
G13  24923357.365 5
G20  20208167.123 7                  20208166.160 4
G25  22085734.349 6                  22085737.733 4
G29  22731977.271 6                  22731978.456 4                  22731978.043 5  93083662.14805
R04                                  20154634.132 6
R05  20544094.764 5                  20544105.513 6
R11  22913180.180 3                  22913191.868 4
R19                                  20961282.810 5
R20                                  20234974.815 6  84159802.89706
> 2022 06 16 19 45 50.0000000  0 30
C11  23029664.886 7                  23029665.411 5
C14  22001732.745 7                  22001732.475 6
C21  25543852.689 5
C28  23059571.130 7
C33  23479988.321 7
C34  24910745.644 7
C37  26437095.125 6 137664893.21606
E02  25832469.955 6 135750521.82106                                  25832472.150 5 104016660.73005
E04  25584282.103 6 134446311.62806  25584280.946 5                  25584284.346 5 103017318.24205
E09  27348534.104 6 143717525.13606                                  27348540.605 5
E11  22569758.697 6 118604880.34906                                  22569757.223 5  90879065.23105
E12  26354921.679 6 138496047.98406                                  26354922.925 4
E19  28456140.458 5                                                  28456142.445 4
E25  25960886.431 6 136425406.26906  25960886.738 4                  25960889.221 5
E36  25259386.891 7 132738954.03007  25259385.974 4                  25259390.053 5 101709103.99605
G02  21460249.906 7                  21460247.794 4
G05  20700773.806 7 108783297.13907  20700773.122 6  84766205.71716  20700774.803 6  84766225.69406
G06  23573884.006 6 123881607.77206  23573888.904 4  96531134.05704  23573888.425 5  96531138.07905
G11  20943680.380 7 110059794.75207  20943680.454 4  85760870.24204  20943680.581 6  85760871.28006
G12  22731904.122 7 119456977.63807  22731904.600 5  93083348.94615  22731906.146 6  93083354.98006
G13  24922657.101 4
G20  20208206.146 7                  20208205.229 4
G25  22085922.180 6                  22085925.914 4                  22085926.252 5  90438171.34205
G29  22731369.998 7                  22731371.546 4                  22731371.475 5  93081177.15705
R03                                  23424750.299 3
R04                                  20154753.337 6
R05  20543463.721 5                  20543474.117 6
R11  22913093.498 3                  22913104.815 4
R19                                  20961574.145 5
R20                                  20234643.204 6  84158424.72406
> 2022 06 16 19 45 51.0000000  0 32
C11  23029962.390 6                  23029962.915 5
C14  22001444.573 7                  22001444.168 6
C21  25544343.298 6
C28  23059138.045 7
C33  23479430.319 7
C34  24911185.326 6
C37  26437414.843 5
E02  25832457.755 6 135750457.36706                                  25832459.946 5 104016611.35005
E04  25583928.667 6 134444454.98206  25583927.688 4                  25583930.888 5 103015895.62605
E09  27347908.471 6 143714237.60406                                  27347915.016 5
E11  22569763.115 6 118604903.15506                                  22569761.191 5  90879082.71605
E12  26355240.904 6 138497727.37106                                  26355242.083 4
E19  28456318.008 5                                                  28456320.688 4
E24  28716341.713 6 150905397.04916
E25  25961301.400 7 136427588.12207  25961302.071 4                  25961304.946 6 104535414.44416
E36  25259047.760 7 132737172.80707  25259046.971 4                  25259051.116 5 101707739.14005
G02  21460369.412 7                  21460367.483 4
G05  20700375.464 7 108781203.21407  20700374.666 6  84764574.07906  20700376.506 6  84764594.12106
G06  23574341.205 6 123884010.75806  23574346.133 4  96533006.51104  23574346.194 5  96533010.46505
G09                                                                  24840580.509 3
G11  20943894.664 7 110060920.86707  20943894.793 4  85761747.74604  20943894.652 6  85761748.76606
G12  22732470.024 7 119459950.94807  22732470.418 5  93085665.82705  22732471.214 6  93085671.82506
G13  24921959.179 3
G20  20208245.151 7                  20208244.275 4
G25  22086110.179 7                  22086114.073 4                  22086114.123 6  90438941.93806
G29  22730763.351 7                  22730764.652 4                  22730765.110 5  93078692.08205
R03                                  23425420.689 3
R04                                  20154872.540 6  83944334.21016
R05  20542832.749 5 109813211.25015  20542842.577 7  85410319.72717
R11  22913006.914 4                  22913015.535 5
R19                                  20961866.262 5  87213661.57115
R20                                  20234311.404 6  84157046.27406
> 2022 06 16 19 45 52.0000000  0 32
C11  23030260.007 6                  23030260.623 6
C14  22001156.600 7                  22001155.844 6
C21  25544833.895 6
C28  23058705.161 7
C33  23478872.226 7
C34  24911624.975 7
C37  26437735.378 5
E02  25832445.836 7 135750394.38307                                  25832448.024 5 104016563.06305
E04  25583575.391 6 134442598.36706  25583574.296 4                  25583577.400 5 103014472.97105
E09  27347283.002 6 143710950.15406                                  27347289.355 5
E11  22569767.556 6 118604926.35606                                  22569765.443 5  90879100.49205
E12  26355560.380 6 138499406.26806                                  26355560.949 4
E19  28456495.996 5                                                  28456498.654 4
E24  28716876.722 5 150908212.99205
E25  25961716.690 7 136429771.30007  25961717.664 4                  25961720.800 5 104537087.17605
E36  25258708.942 7 132735392.65607  25258708.688 4                  25258712.409 5 101706375.20105
G02  21460489.103 7                  21460487.142 4
G05  20699977.452 7 108779110.53307  20699976.484 6  84762943.41506  20699978.196 6  84762963.41206
G06  23574798.438 6 123886413.13906  23574803.300 4  96534878.49204  23574803.687 5  96534882.49105
G09  24840915.052 5                                                  24840901.862 3
G11  20944108.845 7 110062047.16607  20944109.097 4  85762625.38904  20944108.844 6  85762626.40106
G12  22733035.986 7 119462925.36207  22733036.436 5  93087983.56005  22733036.693 6  93087989.51406
G13  24921263.578 3
G20  20208284.281 7                  20208283.442 4
G25  22086298.675 7 116064284.70407  22086302.514 5  90439717.79015  22086302.922 5  90439713.83605
G29  22730156.917 6                  22730157.962 4                  22730159.463 5  93076207.99305
R03                                  23426089.031 3
R04                                  20154992.500 6  83944831.50906
R05  20542201.563 5 109809836.22805  20542211.690 7  85407694.67707
R11  22912920.267 3                  22912928.356 4
R19                                  20962157.669 5  87214875.03305
R20                                  20233979.117 6  84155668.94606
> 2022 06 16 19 45 53.0000000  0 32
C11  23030557.593 6                  23030558.343 5
C14  22000868.376 7                  22000867.896 6
C21  25545325.294 5
C28  23058272.577 7
C33  23478314.348 7
C34  24912064.624 6
C37  26438055.879 5
E02  25832434.029 6 135750332.51306                                  25832436.469 5 104016515.64805
E04  25583222.139 6 134440742.03806  25583221.324 5                  25583224.099 5 103013050.66005
E09  27346656.580 6 143707662.95006                                  27346663.802 5
E11  22569772.105 6 118604949.82406                                  22569769.569 5  90879118.45305
E12  26355879.980 6 138501085.01206                                  26355880.456 4
E19  28456673.793 4                                                  28456676.866 3
E24  28717412.343 5 150911029.18205
E25  25962132.225 7 136431955.24507  25962133.172 4                  25962136.523 5 104538760.58805
E36  25258370.393 7 132733613.09107  25258370.240 4                  25258373.791 5 101705011.60905
G02  21460608.623 7                  21460606.863 4
G05  20699579.256 7 108777018.69107  20699578.456 6  84761313.40806  20699579.919 6  84761333.39906
G06  23575255.730 6 123888815.47806  23575260.424 4  96536750.44504  23575260.574 5  96536754.45205
G09  24841233.262 4                                                  24841222.728 3
G11  20944323.156 7 110063173.73907  20944323.421 4  85763503.24604  20944323.263 6  85763504.23706
G12  22733601.871 7 119465900.45807  22733602.582 5  93090301.81905  22733602.864 6  93090307.80106
G13  24920571.751 3
G20  20208323.538 7                  20208322.699 4
G25  22086487.479 7 116065276.54607  22086491.193 5  90440490.69005  22086491.196 5  90440486.71105
G29  22729550.103 7 119444609.91207  22729551.388 5  93073714.09215  22729553.150 5  93073724.07505
R03                                  23426754.288 4
R04                                  20155111.895 6  83945329.50806
R05  20541569.809 5 109806461.87805  20541580.703 7  85405070.18007
R11  22912832.726 3                  22912843.422 5
R19                                  20962449.934 5  87216088.62005
R20                                  20233647.851 6  84154292.07206
> 2022 06 16 19 45 54.0000000  0 31
C11  23030855.268 6                  23030855.585 6
C14  22000580.581 7                  22000580.135 6
C21  25545817.005 4
C28  23057840.181 7
C33  23477756.744 7
C34  24912504.251 6
C37  26438376.600 5
E02  25832422.270 6 135750271.46806                                  25832424.795 5 104016468.83705
E04  25582869.092 6 134438886.07106  25582868.468 5                  25582870.768 5 103011628.52005
E09  27346031.198 6 143704376.32306                                  27346038.137 5
E11  22569776.481 6 118604973.37806                                  22569774.086 5  90879136.52405
E12  26356199.354 6 138502763.47506                                  26356200.078 4
E19  28456852.090 4
E24  28717947.885 5 150913846.06205
E25  25962548.041 6 136434140.21106  25962549.073 4                  25962552.385 6 104540434.84606
E36  25258031.896 7 132731833.97007  25258031.752 4                  25258035.106 5 101703648.35805
G02  21460728.179 7                  21460726.615 4
G05  20699181.469 7 108774927.91007  20699180.638 6  84759684.22906  20699181.520 6  84759704.22406
G06  23575712.784 6 123891217.41006  23575717.470 4  96538622.07604  23575717.656 5  96538626.09005
G09                                                                  24841545.038 3
G11  20944537.701 7 110064300.37007  20944537.770 4  85764381.14104  20944537.676 6  85764382.14006
G12  22734168.118 7 119468876.69307  22734168.955 5  93092620.96305  22734169.230 6  93092627.00806
G20  20208362.958 7                  20208362.057 4
G25  22086676.380 7 116066269.51107  22086680.088 5  90441264.44105  22086680.063 6  90441260.43806
G29  22728943.762 7 119441422.82107  22728944.886 5  93071230.66205  22728946.333 5  93071240.68705
R03                                  23427419.289 4
R04                                  20155231.048 6  83945828.03206
R05  20540938.763 5 109803088.58905  20540949.624 7  85402446.48507
R11  22912747.886 4                  22912757.907 5
R19                                  20962741.037 5  87217302.17405
R20                                  20233316.805 6  84152915.38106
> 2022 06 16 19 45 55.0000000  0 31
C11  23031153.000 7                  23031153.083 6
C14  22000292.897 7                  22000292.577 6
C21  25546308.630 6
C28  23057407.772 7
C33  23477199.201 7
C34  24912943.927 6
C37  26438696.630 6
E02  25832410.602 6 135750210.17206                                  25832413.092 5 104016421.90305
E04  25582515.965 6 134437030.42606  25582514.918 4                  25582517.430 5 103010206.64405
E09  27345405.735 6 143701089.10406                                  27345412.736 5
E11  22569781.076 6 118604996.76906                                  22569778.625 5  90879154.42905
E12  26356518.826 6 138504442.13206                                  26356519.702 4
E19  28457030.676 5                                                  28457034.471 4
E24  28718483.398 5 150916661.90105
E25  25962963.734 7 136436324.57207  25962964.329 4                  25962968.098 6 104542108.55906
E36  25257693.090 7 132730054.21007  25257693.170 4                  25257696.407 5 101702284.66205
G02  21460848.131 7 112777525.43707  21460846.353 4  87878577.81814
G05  20698783.607 7 108772836.95107  20698782.781 6  84758054.90906  20698783.586 6  84758074.91706
G06  23576169.878 6 123893619.59806  23576174.624 4  96540493.91004  23576175.035 5  96540497.91605
G09  24841867.666 5                                                  24841865.181 4
G11  20944752.118 7 110065427.10507  20944752.150 4  85765259.11804  20944752.083 6  85765260.09606
G12  22734734.236 7 119471852.34007  22734735.203 5  93094939.64505  22734735.534 6  93094945.64506
G20  20208402.362 7 106195876.29807  20208401.464 4  82750024.43214
G25  22086865.476 7 116067262.26507  22086868.988 5  90442038.02405  22086869.220 6  90442034.07606
G29  22728336.860 7 119438235.36507  22728338.305 5  93068746.94305  22728339.258 5  93068756.95005
R03                                  23428085.821 4
R04                                  20155350.908 6  83946327.19106
R05  20540308.257 5 109799715.31305  20540318.971 6  85399822.82506
R11  22912660.840 4                  22912672.072 5
R19                                  20963032.532 5  87218516.05605
R20                                  20232985.947 6  84151538.52906
> 2022 06 16 19 45 56.0000000  0 29
C11  23031450.727 7                  23031451.117 5
C14  22000005.139 7                  22000005.000 6
C21  25546799.850 6
C28  23056975.407 7
C33  23476641.764 6
C34  24913383.654 7
C37  26439016.801 6
E02  25832398.795 6 135750148.92506                                  25832401.258 5 104016374.90905
E04  25582163.062 6 134435175.46306  25582161.943 4                  25582164.509 5 103008785.32905
E09  27344780.457 5 143697801.28605                                  27344787.688 4
E11  22569785.524 6 118605020.65606                                  22569783.413 5  90879172.72605
E12  26356838.540 6 138506121.69206                                  26356839.395 4
E19  28457209.336 5                                                  28457212.589 4
E25  25963379.300 6 136438508.21606  25963379.672 4                  25963383.656 5 104543781.72405
E36  25257354.225 7 132728274.09007  25257354.211 4                  25257357.637 5 101700920.66905
G02  21460968.177 7 112778155.55707  21460966.264 4  87879068.82404
G05  20698385.861 7 108770746.01107  20698384.923 6  84756425.61006  20698385.358 6  84756445.60406
G06  23576627.232 6 123896022.81006  23576631.939 4  96542366.54504  23576632.406 5  96542370.49905
G09  24842185.794 6 130546587.65816  24842188.822 2                  24842189.641 4
G11  20944966.583 7 110066554.69607  20944966.700 4  85766137.76304  20944966.770 6  85766138.76706
G12  22735300.388 7 119474827.56207  22735301.379 5  93097257.99905  22735301.611 5  93097263.95305
G20  20208441.847 7 106196084.04707  20208441.012 4  82750186.31704
G25  22087054.165 7 116068254.90707  22087057.873 5  90442811.51805  22087058.229 5  90442807.53405
G29  22727730.225 6 119435048.07106  22727731.730 5  93066263.34305  22727732.692 5  93066273.28005
R04                                  20155471.379 6  83946827.57806
R05  20539676.975 5 109796342.67805  20539687.278 6  85397199.71806
R11  22912575.961 3                  22912586.943 5
R19                                  20963325.193 5  87219730.79205
R20                                  20232654.980 6  84150162.08706
> 2022 06 16 19 45 57.0000000  0 30
C11  23031748.624 7 119932357.64707  23031749.062 6  92739311.78116
C14  21999717.572 7 114558307.91007  21999717.880 6  88583742.75506
C21  25547291.425 6
C28  23056542.811 7 120061471.05407
C33  23476084.353 7 122246143.96807
C34  24913823.682 6 129732822.60816
C37  26439337.130 6
E02  25832387.052 6 135750088.22306                                  25832389.694 5 104016328.48905
E04  25581810.446 6 134433321.55706  25581808.881 4                  25581812.125 5 103007364.80005
E09  27344154.790 5 143694514.23305                                  27344162.430 4
E11  22569790.090 6 118605045.14206                                  22569788.078 5  90879191.51705
E12  26357158.409 6 138507802.02306                                  26357159.362 4
E19  28457387.848 5                                                  28457390.917 4
E24  28719556.512 3
E25  25963794.883 5 136440692.12905  25963795.314 4                  25963799.141 5 104545455.15805
E36  25257015.585 7 132726494.20907  25257015.356 4                  25257018.897 5 101699556.89705
G02  21461088.271 7 112778786.40607  21461086.324 4  87879560.39404
G05  20697987.892 7 108768655.85207  20697987.220 6  84754796.91406  20697987.614 6  84754816.90606
G06  23577084.515 6 123898426.75306  23577089.401 5  96544239.73905  23577089.825 5  96544243.76905
G09                                                                  24842510.913 5
G11  20945181.447 7 110067683.05607  20945181.420 4  85767017.00604  20945181.644 6  85767018.02306
G12  22735866.633 6                  22735867.480 5                  22735867.368 5  93099581.40905
G20  20208481.740 7 106196292.70707  20208480.731 4  82750348.91104
G25  22087243.133 7 116069248.21907  22087246.873 5  90443585.53005  22087247.659 6  90443581.51206
G29  22727123.812 6 119431861.06406  22727125.212 5  93063779.96305  22727125.590 5  93063789.97005
R04                                  20155591.846 6  83947329.08206
R05  20539046.657 5 109792970.84505  20539056.185 6  85394577.16006
R11  22912487.566 4                  22912499.925 5
R19                                  20963616.948 5  87220946.17105
R20                                  20232323.977 6  84148786.04906
> 2022 06 16 19 45 58.0000000  0 30
C11  23032046.873 6 119933910.08006  23032047.392 6  92740512.28506
C14  21999430.306 7 114556812.44207  21999430.629 6  88582586.41506
C21  25547783.375 6
C28  23056110.651 7 120059220.60007
C33  23475527.071 7 122243241.99907
C34  24914263.745 6 129735114.27506
C37  26439658.231 6
E02  25832375.862 6 135750029.07406                                  25832378.631 5 104016283.12705
E04  25581457.817 7 134431468.44807  25581456.102 5                  25581459.638 5 103005944.95205
E11  22569794.925 6 118605070.69606                                  22569792.890 5  90879211.08505
E12  26357478.148 6 138509482.90406                                  26357479.222 4
E19  28457566.217 5                                                  28457569.742 4
E24  28720090.066 3
E25  25964210.580 6 136442876.97406  25964211.094 4                  25964214.756 5 104547129.20005
E36  25256677.110 7 132724715.41207  25256676.604 5                  25256680.504 5 101698193.91305
G02  21461208.363 7 112779418.28407  21461206.523 4  87880052.76604
G05  20697590.277 7 108766566.97607  20697589.764 6  84753169.22106  20697590.227 6  84753189.24406
G06  23577542.067 6 123900831.23606  23577546.934 5  96546113.36205  23577547.666 5  96546117.37305
G09  24842826.987 5 130549976.11105  24842833.612 3 101727250.91613  24842832.745 5
G11  20945396.369 7 110068812.54907  20945396.363 4  85767897.12404  20945396.589 6  85767898.14106
G12  22736432.933 7 119480779.08907  22736433.863 5  93101895.57315  22736433.840 6  93101900.55906
G20  20208521.649 7 106196502.77907  20208520.706 4  82750512.60304
G25  22087432.433 7 116070243.06807  22087436.150 5  90444360.73905  22087436.606 6  90444356.80606
G29  22726517.906 7 119428675.36007  22726518.936 5  93061297.60205  22726518.796 5  93061307.64505
R03                                  23430080.284 5
R04                                  20155712.434 6  83947831.95206
R05  20538416.395 5 109789600.20305  20538426.507 7  85391955.57207
R11  22912400.562 3                  22912413.668 5
R19                                  20963909.081 5  87222162.38605
R20                                  20231994.110 6  84147411.11506
> 2022 06 16 19 45 59.0000000  0 29
C11  23032344.979 6 119935462.26406  23032345.348 6  92741712.48806
C14  21999143.169 7 114555317.15307  21999143.453 6  88581430.15506
C21  25548275.224 6
C28  23055678.562 7 120056970.19107
C33  23474969.831 7 122240340.12107
C34  24914703.554 6 129737405.72706
C37  26439978.767 6
E02  25832364.698 6 135749970.45006                                  25832367.491 5 104016238.24305
E04  25581105.275 7 134429615.21107  25581103.666 4                  25581106.804 5 103004524.99805
E11  22569799.860 6 118605096.00506                                  22569797.746 5  90879230.47805
E12  26357797.772 6 138511163.25806                                  26357798.889 4
E19  28457745.453 5                                                  28457748.920 4
E25  25964626.318 7 136445062.16507  25964627.349 4                  25964630.440 5 104548803.61405
E36  25256338.609 7 132722936.72407  25256338.460 4                  25256341.925 5 101696831.01505
G02  21461328.648 7 112780049.88607  21461326.679 4  87880544.92004
G05  20697192.818 7 108764478.39707  20697192.353 6  84751541.75706  20697193.240 6  84751561.79206
G06  23577999.559 6 123903235.25506  23578004.416 5  96547986.62105  23578005.378 5  96547990.60105
G09  24843149.166 5                                                  24843154.456 4
G11  20945611.305 7 110069941.75207  20945611.253 4  85768777.02004  20945611.574 6  85768778.03406
G12  22736999.295 7 119483755.67707  22737000.322 5  93104214.97705  22737000.520 6  93104219.94806
G20  20208561.733 7 106196713.01107  20208560.712 4  82750676.42004
G25  22087622.082 7 116071238.58207  22087625.558 5  90445136.46705  22087625.830 5  90445132.43905
G29  22725911.755 7 119425489.88507  22725912.728 5  93058815.41805  22725912.579 5  93058825.43205
R03                                  23430749.979 5  97554047.15615
R04                                  20155832.658 6  83948335.10606
R05  20537785.777 5 109786229.93605  20537795.935 7  85389334.21207
R11  22912317.394 4                  22912328.094 5
R19                                  20964201.141 5  87223378.38305
R20                                  20231663.960 6  84146036.14306
> 2022 06 16 19 46  0.0000000  0 29
C11  23032642.948 6 119937014.66406  23032643.570 5  92742912.95005
C14  21998856.105 7 114553822.57507  21998856.412 6  88580274.40306
C21  25548767.441 6
C28  23055246.663 7 120054720.39007
C33  23474412.609 7 122237438.93907
C34  24915143.536 5 129739697.21505
C37  26440299.834 6
E02  25832353.832 6 135749912.90406                                  25832356.515 5 104016194.11905
E04  25580752.888 7 134427762.39507  25580751.092 4                  25580754.231 5 103003105.21605
E11  22569804.623 6 118605121.62106                                  22569802.938 5  90879250.07605
E12  26358117.555 6 138512843.61506                                  26358118.807 4
E19  28457924.684 5                                                  28457927.919 4
E25  25965042.234 7 136447248.23007  25965043.433 4                  25965046.507 5 104550478.56605
E36  25256000.220 7 132721158.58707  25255999.936 4                  25256003.553 5 101695468.51505
G02  21461449.081 7 112780681.70807  21461446.886 4  87881037.24504
G05  20696795.475 7 108762390.80107  20696795.122 6  84749915.06006  20696796.267 6  84749935.06006
G06  23578457.143 6 123905639.31106  23578461.879 5  96549859.91005  23578462.598 5  96549863.88705
G09  24843472.061 6                                                  24843476.050 5
G11  20945826.185 7 110071071.31607  20945826.239 4  85769657.19804  20945826.854 6  85769658.18506
G12  22737565.961 7 119486733.16707  22737566.962 5  93106535.08705  22737567.791 6  93106540.02806
G20  20208601.513 7 106196923.82607  20208600.839 4  82750840.69004
G25  22087811.794 7 116072235.28707  22087815.188 5  90445913.11605  22087815.204 5  90445909.16605
G29  22725305.466 7 119422305.06507  22725306.661 5  93056333.74705  22725307.107 5  93056343.76305
R03                                  23431418.526 5  97556831.56005
R04                                  20155954.054 6  83948838.98106
R05  20537154.930 5 109782860.43005  20537165.637 7  85386713.49207
R11  22912232.304 4                  22912243.231 6
R19                                  20964493.545 5  87224594.56305
R20                                  20231333.439 6  84144661.62006
> 2022 06 16 19 46  1.0000000  0 29
C11  23032941.141 6 119938567.19306  23032941.603 5  92744113.41805
C14  21998569.414 7 114552328.36307  21998569.326 6  88579119.03506
C21  25549259.588 6
C28  23054814.710 7 120052470.09307
C33  23473855.667 7 122234538.25207
C34  24915583.596 5
C37  26440620.767 6
E02  25832342.887 6 135749855.27506                                  25832345.474 5 104016149.97105
E04  25580400.378 6 134425909.95406  25580398.943 4                  25580401.549 5 103001685.74405
E11  22569809.393 6 118605146.81306                                  22569807.878 5  90879269.39905
E12  26358437.539 6 138514523.74506                                  26358438.278 4
E19  28458103.733 5                                                  28458106.681 4
E25  25965458.289 7 136449434.50107  25965459.334 4                  25965462.808 5 104552153.77405
E36  25255661.789 7 132719379.98407  25255661.823 4                  25255665.148 5 101694105.71505
G02  21461569.246 7 112781313.24607  21461567.052 4  87881529.35704
G05  20696398.263 7 108760303.57407  20696397.961 6  84748288.64906  20696399.379 6  84748308.68006
G06  23578914.557 6 123908043.04406  23578919.301 5  96551732.94405  23578920.208 5  96551736.99905
G09  24843794.599 6 130555062.57806  24843797.528 3 101731197.58313  24843798.691 5
G11  20946041.150 7 110072200.62607  20946041.142 4  85770537.18404  20946041.758 6  85770538.19406
G12  22738132.475 6 119489711.09706  22738133.668 5  93108855.54205  22738134.565 5  93108860.47505
G20  20208641.806 7 106197134.78507  20208641.007 4  82751005.07004
G25  22088001.500 7 116073232.30707  22088004.914 5  90446690.01105  22088005.100 6  90446685.99906
G29  22724699.452 7 119419119.74507  22724700.512 5  93053851.68105  22724700.754 5  93053861.71905
R03  23432021.064 3                  23432086.670 5  97559615.74805
R04                                  20156075.185 6  83949343.24406
R05  20536523.913 4 109779493.13604  20536535.644 6  85384093.48406
R11  22912149.024 4                  22912158.287 5  95227709.00715
R19                                  20964785.762 5  87225810.75205
R20                                  20231002.449 6  84143286.77506
> 2022 06 16 19 46  2.0000000  0 29
C11  23033239.589 6 119940120.17006  23033239.775 5  92745314.34205
C14  21998282.611 6 114550834.84206  21998282.373 6  88577964.18106
C21  25549751.519 6
C28  23054382.450 7 120050219.67307
C33  23473298.743 6
C34  24916024.091 6
C37  26440941.189 6
E02  25832331.979 6 135749797.82606                                  25832334.518 5 104016105.95005
E04  25580048.055 6 134424057.99406  25580047.076 4                  25580049.168 4 103000266.69304
E11  22569814.305 6 118605172.02606                                  22569812.446 5  90879288.75305
E12  26358757.003 6 138516203.96406                                  26358758.406 4
E19  28458282.589 5                                                  28458285.765 4
E25  25965874.555 6 136451621.29206  25965875.312 4                  25965879.068 5 104553829.30405
E36  25255323.328 7 132717601.21207  25255323.330 4                  25255326.782 5 101692742.78705
G02  21461689.499 7 112781944.85707  21461687.226 4  87882021.52304
G05  20696001.211 7 108758217.08007  20696000.934 6  84746662.81006  20696001.892 6  84746682.80606
G06  23579371.919 6 123910446.92906  23579376.722 5  96553606.10105  23579378.033 5  96553610.00205
G09  24844116.904 6 130556758.08906  24844120.004 3 101732518.75303  24844121.730 5
G11  20946256.012 7 110073330.06807  20946256.074 4  85771417.26904  20946256.635 6  85771418.28306
G12  22738699.227 5 119492689.59105  22738700.472 5  93111176.44705  22738701.689 5  93111181.50505
G20  20208681.908 7 106197346.22207  20208681.259 4  82751169.82504
G25  22088191.430 7 116074229.79807  22088194.735 5  90447467.27405  22088195.195 6  90447463.30406
G29  22724093.066 7 119415934.28807  22724094.331 5  93051369.50605  22724094.365 5  93051379.48005
R03                                  23432754.478 5  97562399.97505
R04                                  20156196.295 6  83949848.12106
R05  20535896.874 4                  20535906.132 6
R11  22912063.330 4                  22912073.285 6
R19                                  20965077.366 5  87227027.13305
R20                                  20230671.676 6  84141911.83506
> 2022 06 16 19 46  3.0000000  0 30
C11  23033537.690 6 119941673.27506  23033537.901 5  92746515.27405
C14  21997996.131 6 114549342.04706  21997995.880 6  88576809.72706
C21  25550243.672 6 133046830.28416
C28  23053950.111 7 120047968.93707
C33  23472741.794 6
C34  24916464.288 6
C37  26441262.033 6 137686590.53306
E02  25832321.014 6 135749740.27806                                  25832323.616 5 104016061.85905
E04  25579695.720 6 134422206.54506  25579694.519 4                  25579697.054 5 102998848.19505
E09  27340402.814 4                                                  27340408.802 4
E11  22569819.047 6 118605197.20106                                  22569817.219 5  90879307.97605
E12  26359076.801 6 138517884.27206                                  26359078.328 4
E19  28458462.191 5                                                  28458464.518 4
E25  25966290.765 5 136453807.80805  25966291.410 3                  25966295.569 4 104555504.74404
E36  25254984.757 7 132715821.99807  25254984.784 4                  25254988.222 5 101691379.44605
G02  21461809.644 7 112782576.55707  21461807.417 4  87882513.75904
G05  20695604.370 7 108756130.65207  20695603.932 6  84745037.02406  20695604.923 6  84745057.04306
G06  23579829.441 6 123912850.84006  23579834.120 4  96555479.28104  23579835.559 5  96555483.28305
G09                                                                  24844443.146 4
G11  20946470.947 7 110074459.69407  20946471.011 4  85772297.49304  20946471.478 6  85772298.48806
G12  22739266.026 6                  22739267.375 4                  22739269.545 5  93113501.96805
G20  20208722.143 7 106197558.05607  20208721.622 4  82751334.89004
G25  22088381.248 7 116075227.35107  22088384.570 5  90448244.58405  22088385.207 6  90448240.53506
G29  22723486.897 7 119412748.47807  22723488.068 5  93048887.05505  22723488.546 5  93048897.08905
R03                                  23433422.466 5  97565184.27505
R04                                  20156318.030 6  83950353.57006
R05  20535265.592 4                  20535275.882 6  85378854.97206
R11  22911978.928 4                  22911987.889 5  95227002.53705
R19                                  20965369.358 5  87228243.85005
R20                                  20230341.286 6  84140536.85406
> 2022 06 16 19 46  4.0000000  0 30
C11  23033836.199 6 119943227.43606  23033836.732 5  92747717.09305
C14  21997709.336 6                  21997709.399 6  88575655.72406
C21  25550736.432 6 133049393.89606
C28  23053517.859 7 120045717.86407
C33  23472185.154 6
C34  24916904.801 7
C37  26441582.485 6 137688260.46506
E02  25832310.041 6 135749682.52406                                  25832312.440 5 104016017.62505
E04  25579343.449 6 134420355.97306  25579341.820 4                  25579344.784 5 102997430.18705
E09  27339776.366 4                                                  27339782.874 4
E11  22569823.871 6 118605222.66806                                  22569822.098 5  90879327.51305
E12  26359396.759 6 138519565.59306                                  26359398.044 4
E19  28458642.009 5                                                  28458643.902 4
E25  25966706.640 6 136455993.39906  25966707.378 4                  25966711.252 5 104557179.51605
E36  25254646.138 7 132714042.18507  25254646.398 4                  25254649.506 5 101690015.70305
G02  21461929.793 7 112783208.79507  21461927.726 4  87883006.41204
G05  20695207.393 7 108754044.59807  20695206.983 6  84743411.52906  20695207.798 6  84743431.55906
G06  23580287.212 6 123915255.83306  23580291.741 4  96557353.29804  23580292.707 5  96557357.30805
G09  24844763.076 3                                                  24844768.363 3
G11  20946686.010 7 110075590.05207  20946686.069 4  85773178.28804  20946686.382 6  85773179.27606
G12  22739832.923 6                  22739834.260 5                  22739835.688 5  93115822.46105
G20  20208762.560 7 106197770.50407  20208762.063 4  82751500.43704
G25  22088570.938 7 116076224.74607  22088574.392 5  90449021.77205  22088574.642 5  90449017.76605
G29  22722880.664 7 119409562.40607  22722881.774 5  93046404.40305  22722882.193 5  93046414.39005
R03                                  23434090.155 5  97567969.49405
R04                                  20156439.625 6  83950860.33406
R05  20534635.272 4                  20534645.415 6  85376236.63006
R11  22911894.598 4                  22911902.860 6  95226649.69906
R19                                  20965661.804 5  87229461.41605
R20                                  20230010.546 6  84139161.92606
> 2022 06 16 19 46  5.0000000  0 29
C11  23034134.959 6 119944782.49206  23034135.414 6  92748919.47206
C14  21997423.098 7                  21997422.902 6  88574502.31206
C21  25551228.713 6 133051958.51706
C28  23053085.340 7 120043466.45607
C33  23471628.373 6
C34  24917345.476 7
C37  26441902.948 6 137689929.72406
E02  25832298.951 6 135749624.54006                                  25832301.699 5 104015973.18305
E04  25578991.423 7 134418506.63807  25578989.716 4                  25578993.069 5 102996013.14205
E09  27339151.157 5 143668210.09315                                  27339158.300 4
E11  22569828.600 6 118605248.41806                                  22569827.163 5  90879347.19505
E12  26359716.681 6 138521247.84506                                  26359718.387 4
E19  28458821.285 5                                                  28458823.804 4
E25  25967122.304 6 136458178.88106  25967123.985 4                  25967126.832 5 104558854.00005
E36  25254307.404 7 132712261.77707  25254307.547 4                  25254310.478 5 101688651.45505
G02  21462050.255 7 112783841.56307  21462048.136 4  87883499.47104
G05  20694810.565 7 108751958.62407  20694810.049 6  84741786.09406  20694811.278 6  84741806.07906
G06  23580745.110 6 123917661.81806  23580749.605 4  96559228.08904  23580750.611 5  96559232.06605
G11  20946901.284 7 110076721.04007  20946901.266 4  85774059.58104  20946901.752 6  85774060.58106
G12  22740399.455 6                                                  22740402.346 5  93118142.59905
G20  20208803.270 7 106197983.64607  20208802.613 4  82751666.52104
G25  22088760.398 7 116077221.91807  22088764.142 5  90449798.78905  22088764.687 5  90449794.83005
G29  22722274.342 7 119406375.91207  22722275.380 5  93043921.42105  22722275.116 5  93043931.44505
R03                                  23434759.501 5  97570755.38805
R04                                  20156561.993 6  83951368.26606
R05  20534005.753 5                  20534015.317 7  85373618.77407
R11  22911809.342 4                  22911817.582 6  95226297.15006
R19                                  20965954.663 5  87230679.77505
R20                                  20229679.933 6  84137787.05906
> 2022 06 16 19 46  6.0000000  0 30
C11  23034433.741 6 119946338.48506  23034433.743 6  92750122.71006
C14  21997136.906 7                  21997136.862 6  88573349.70606
C21  25551721.356 6 133054524.27806
C28  23052653.047 7 120041215.37907
C33  23471071.682 7
C34  24917786.497 6
C37  26442223.386 6 137691599.08806
E02  25832288.086 6 135749566.96506                                  25832290.744 5 104015929.08805
E04  25578639.790 7 134416658.34007  25578637.687 4                  25578641.417 5 102994596.95405
E09                                                                  27338533.820 3
E11  22569833.619 6 118605274.87406                                  22569832.204 5  90879367.53105
E12  26360036.936 6 138522931.05806                                  26360038.926 4
E19  28459000.655 5                                                  28459003.948 4
E25  25967537.789 5 136460364.40805  25967540.155 3                  25967542.580 4 104560528.58104
E36  25253968.598 7 132710481.47707  25253969.117 4                  25253971.705 5 101687287.41905
G02  21462170.744 7 112784475.12307  21462168.701 4  87883993.15704
G05  20694413.726 7 108749873.45107  20694413.307 6  84740161.28606  20694414.484 6  84740181.28606
G06  23581203.189 6 123920068.72306  23581207.651 4  96561103.59704  23581208.260 5  96561107.58805
G09  24845418.361 3
G11  20947116.750 7 110077852.99507  20947116.644 4  85774941.62304  20947117.476 6  85774942.60506
G12  22740966.042 6 119504600.27406  22740967.469 4  93120460.25314  22740969.022 5  93120463.27805
G20  20208844.185 7 106198197.78807  20208843.357 4  82751833.38804
G25  22088950.366 7 116078219.70507  22088953.988 5  90450576.28905  22088954.569 5  90450572.30405
G29  22721668.169 7 119403189.87607  22721669.076 5  93041438.79805  22721669.420 6  93041448.79006
R03                                  23435429.433 4  97573542.34404
R04                                  20156684.518 6  83951877.39306
R05  20533376.699 5                  20533385.856 7  85371001.84907
R11  22911723.384 4                  22911732.900 6  95225945.31806
R19                                  20966248.293 6  87231899.01606
R20                                  20229349.671 6  84136412.67706
> 2022 06 16 19 46  7.0000000  0 29
C11  23034732.848 6 119947895.81906  23034732.613 6  92751326.93306
C14  21996850.801 7                  21996850.737 6  88572197.91606
C21  25552214.539 6 133057091.34606
C28  23052220.808 7 120038964.06107
C33  23470514.917 6
C34  24918227.503 6
C37  26442543.919 6 137693267.72106
E02  25832277.156 6 135749509.22906                                  25832279.642 5 104015884.81605
E04  25578288.256 7 134414811.55807  25578286.620 4                  25578289.861 5 102993181.86105
E09  27337904.682 3
E11  22569838.757 6 118605301.98606                                  22569837.310 5  90879388.26705
E12  26360357.658 6 138524615.73206                                  26360359.577 4
E19  28459180.888 5                                                  28459184.069 4
E25  25967953.579 6 136462549.54006  25967955.515 4                  25967958.389 5 104562202.95205
E36  25253629.637 7 132708700.66707  25253629.837 4                  25253632.835 5 101685922.83505
G02  21462291.390 7 112785109.64007  21462289.439 4  87884487.58704
G05  20694016.792 7 108747788.65107  20694016.607 6  84738536.76706  20694017.306 6  84738556.77306
G06  23581661.553 6 123922477.12206  23581665.963 4  96562980.27004  23581666.698 5  96562984.24405
G11  20947332.258 7 110078986.02907  20947332.224 4  85775824.50504  20947333.024 6  85775825.50506
G12  22741532.711 7 119507578.06207  22741534.140 4  93122780.61204  22741535.250 6  93122783.60206
G20  20208885.247 7 106198412.93607  20208884.276 4  82752001.03604
G25  22089140.138 7 116079217.30207  22089143.817 5  90451353.63305  22089145.170 6  90451349.66906
G29  22721061.743 7 119400003.61007  22721062.770 5  93038955.99005  22721063.285 5  93038965.97405
R03  23436054.937 3                  23436100.441 5  97576330.28005
R04                                  20156806.660 6  83952387.97306
R05  20532747.675 5                  20532756.573 6  85368385.86506
R11  22911640.717 4                  22911648.218 6  95225593.94006
R19                                  20966541.938 6  87233119.45106
R20                                  20229019.097 6  84135038.55206
> 2022 06 16 19 46  8.0000000  0 28
C11  23035032.340 7 119949454.38007  23035032.037 6  92752532.12206
C14  21996564.816 7                  21996564.902 6  88571046.66506
C21  25552707.569 6 133059660.02506
C28  23051788.228 7 120036712.17907
C33  23469958.195 7
C34  24918668.694 6
C37  26442864.474 6 137694935.24206
E02  25832265.934 6 135749450.81406                                  25832268.575 5 104015840.06005
E04  25577937.008 7 134412966.07207  25577935.428 4                  25577938.741 5 102991767.74805
E11  22569843.939 6 118605329.42506                                  22569842.473 5  90879409.36005
E12  26360678.699 6 138526301.86806                                  26360680.443 4
E19  28459361.144 5                                                  28459364.151 4
E25  25968369.279 6 136464733.69606  25968370.915 4                  25968374.166 5 104563876.51305
E36  25253290.622 7 132706918.87307  25253290.217 4                  25253293.887 5 101684557.63805
G02  21462412.484 7 112785744.83607  21462410.285 4  87884982.54804
G05  20693620.037 7 108745703.70507  20693619.869 6  84736912.13606  20693620.235 6  84736932.13706
G06  23582120.432 6 123924887.07906  23582124.555 4  96564858.16104  23582125.238 5  96564862.19905
G11  20947548.008 7 110080120.04507  20947547.987 4  85776708.15004  20947549.023 6  85776709.13306
G12  22742099.628 6 119510555.16106  22742100.649 4  93125100.42304  22742101.407 5  93125103.59405
G20  20208926.331 7 106198628.72007  20208925.336 4  82752169.17904
G25  22089329.919 7 116080214.21207  22089333.512 5  90452130.44605  22089334.628 6  90452126.45506
G29  22720455.274 7 119396816.70407  22720456.312 5  93036472.69005  22720457.263 5  93036482.71605
R03                                  23436770.895 5  97579119.32205
R04                                  20156929.668 6  83952900.02806
R05  20532117.897 5                  20532127.082 6  85365770.25006
R11  22911553.664 4                  22911564.016 6  95225242.37806
R19                                  20966835.237 6  87234341.12006
R20                                  20228688.447 6  84133664.45606
